City_ID,City,Country,Date,Lat,Lng,Max Temp,Humidity,Cloudiness,Wind Speed
0,Hermanus,ZA,2022-05-01 09:38:46,-34.4187,19.2345,294.15,58,4,1.67
1,Jamestown,US,2022-05-01 09:38:47,42.097,-79.2353,283.92,34,0,4.12
2,Klaksvik,FO,2022-05-01 09:38:48,62.2266,-6.589,281.66,81,89,5.18
3,Arriana,GR,2022-05-01 09:38:50,41.0833,25.7,293.07,52,60,5.47
4,Lagos,NG,2022-05-01 09:38:51,6.5833,3.75,304.33,57,85,2.39
5,Rutana,BI,2022-05-01 09:38:52,-3.8667,30.1,293.66,68,57,2.4
6,Esperance,AU,2022-05-01 09:38:53,-33.8667,121.9,292.06,67,0,2.25
7,Kapaa,US,2022-05-01 09:38:54,22.0752,-159.319,296.14,92,20,8.23
8,Oyugis,KE,2022-05-01 09:38:56,-0.509,34.7358,297.26,70,32,1.96
9,Teya,RU,2022-05-01 09:38:57,60.3778,92.6267,275.5,67,100,3.09
10,Rikitea,PF,2022-05-01 09:38:59,-23.1203,-134.9692,297.8,75,84,5.61
11,Yar-Sale,RU,2022-05-01 09:39:00,66.8333,70.8333,272.02,80,45,6.09
12,Tibiri,NE,2022-05-01 09:39:01,13.5627,7.0485,308.34,31,0,4.12
13,Albany,US,2022-05-01 09:39:03,42.6001,-73.9662,276.22,71,1,1.23
14,Kaitangata,NZ,2022-05-01 09:39:04,-46.2817,169.8464,285.24,96,100,0.56
15,Mataura,NZ,2022-05-01 09:39:05,-46.1927,168.8643,284.53,99,100,0.78
16,Faya,SA,2022-05-01 09:39:07,18.3851,42.4509,299.44,26,22,0.96
17,Vaini,TO,2022-05-01 09:39:08,-21.2,-175.2,298.24,100,20,2.06
18,Boende,CD,2022-05-01 09:39:09,-0.2167,20.8667,301.56,65,100,1.12
19,Tasiilaq,GL,2022-05-01 09:39:10,65.6145,-37.6368,275.24,58,65,2.97
20,Ribeira Grande,PT,2022-05-01 09:39:11,38.5167,-28.7,289.37,82,20,1.54
21,Sao Felix Do Xingu,BR,2022-05-01 09:39:12,-6.6447,-51.995,293.5,98,15,0.4
22,Bredasdorp,ZA,2022-05-01 09:39:13,-34.5322,20.0403,294.18,46,5,0.7
23,Bluff,NZ,2022-05-01 09:39:14,-46.6,168.3333,284.71,92,58,3.17
24,Cherskiy,RU,2022-05-01 09:39:15,68.75,161.3,264.28,91,56,2.99
25,Chokurdakh,RU,2022-05-01 09:39:17,70.6333,147.9167,265.4,93,31,3.36
26,Carnarvon,AU,2022-05-01 09:39:18,-24.8667,113.6333,298.19,69,2,6.17
27,Anori,BR,2022-05-01 09:39:19,-3.7728,-61.6442,295.7,99,99,0.38
28,Hithadhoo,MV,2022-05-01 09:39:20,-0.6,73.0833,302.83,70,43,6.76
29,Barrow,US,2022-05-01 09:39:21,71.2906,-156.7887,268.16,86,100,6.69
30,Longyearbyen,SJ,2022-05-01 09:39:22,78.2186,15.6401,266.06,53,20,4.63
31,Kamaishi,JP,2022-05-01 09:37:39,39.2667,141.8833,281.46,99,100,0.59
32,Lano,NG,2022-05-01 09:39:25,10.1725,11.4715,307.82,36,100,4.39
33,Arraial Do Cabo,BR,2022-05-01 09:39:26,-22.9661,-42.0278,293.07,100,40,2.06
34,Saskylakh,RU,2022-05-01 09:37:19,71.9167,114.0833,264.56,90,100,5.66
35,Plettenberg Bay,ZA,2022-05-01 09:39:28,-34.0527,23.3716,292.85,54,21,2.78
36,Saint-Philippe,RE,2022-05-01 09:39:29,-21.3585,55.7679,301.92,77,25,4.5
37,Qaanaaq,GL,2022-05-01 09:39:30,77.484,-69.3632,258.15,65,28,4.21
38,Birecik,TR,2022-05-01 09:39:31,37.0294,37.9903,296.71,52,95,2.37
39,Yellowknife,CA,2022-05-01 09:39:32,62.456,-114.3525,270.44,63,0,4.12
40,Cape Town,ZA,2022-05-01 09:39:34,-33.9258,18.4232,295.99,62,0,7.2
41,Nador,MA,2022-05-01 09:39:35,35.174,-2.9287,294.29,49,0,0.51
42,Faanui,PF,2022-05-01 09:39:36,-16.4833,-151.75,300.33,73,60,5.48
43,Chumikan,RU,2022-05-01 09:39:37,54.7183,135.315,271.97,98,87,1.26
44,Gamba,GA,2022-05-01 09:39:39,-2.65,10.0,303.24,61,36,2.09
45,Padang,ID,2022-05-01 09:35:58,-0.9492,100.3543,303.18,79,77,2.2
46,Ushuaia,AR,2022-05-01 09:39:41,-54.8,-68.3,276.54,94,100,3.41
47,Goderich,CA,2022-05-01 09:39:42,43.7501,-81.7165,284.33,24,100,10.8
48,Miguel Hidalgo,MX,2022-05-01 09:40:43,19.4225,-99.2028,291.82,43,75,2.57
49,Orange Cove,US,2022-05-01 09:40:44,36.6244,-119.3137,289.6,67,0,1.94
50,Paamiut,GL,2022-05-01 09:40:46,61.994,-49.6678,273.24,78,26,0.96
51,Thompson,CA,2022-05-01 09:40:47,55.7435,-97.8558,270.24,86,100,6.69
52,Savino,RU,2022-05-01 09:40:48,56.5929,41.2181,283.57,33,58,4.37
53,Tuktoyaktuk,CA,2022-05-01 09:40:50,69.4541,-133.0374,274.38,86,100,6.6
54,Puerto Ayora,EC,2022-05-01 09:40:52,-0.7393,-90.3518,294.84,95,40,2.13
55,Shaki,AZ,2022-05-01 09:40:53,41.0833,47.1667,294.75,56,91,1.95
56,Moron,AR,2022-05-01 09:40:54,-34.6534,-58.6198,284.01,80,32,2.04
57,Maldonado,UY,2022-05-01 09:40:58,-34.6667,-54.9167,283.28,94,56,2.31
58,Hobart,AU,2022-05-01 09:39:18,-42.8794,147.3294,290.07,69,75,6.69
59,Hilo,US,2022-05-01 09:41:00,19.7297,-155.09,296.0,94,100,4.12
60,Port Elizabeth,ZA,2022-05-01 09:41:01,-33.918,25.5701,295.98,51,0,7.2
61,Mehamn,NO,2022-05-01 09:41:02,71.0357,27.8492,271.4,59,99,2.91
62,Narsaq,GL,2022-05-01 09:41:04,60.9167,-46.05,277.27,86,87,1.45
63,San Rafael,AR,2022-05-01 09:41:05,-34.6177,-68.3301,280.92,53,0,1.52
64,New Norfolk,AU,2022-05-01 09:41:06,-42.7826,147.0587,289.87,71,98,0.45
65,Iqaluit,CA,2022-05-01 09:40:08,63.7506,-68.5145,263.0,85,75,0.0
66,Buriti Alegre,BR,2022-05-01 09:41:08,-18.14,-49.0403,288.47,56,0,2.09
67,Kasane,BW,2022-05-01 09:41:09,-17.8167,25.15,301.56,26,0,2.93
68,Cidreira,BR,2022-05-01 09:41:10,-30.1811,-50.2056,290.53,94,100,1.98
69,Chuy,UY,2022-05-01 09:41:12,-33.6971,-53.4616,283.73,94,41,2.51
70,Yulara,AU,2022-05-01 09:41:13,-25.2406,130.9889,292.06,55,100,4.12
71,Nanortalik,GL,2022-05-01 09:41:14,60.1432,-45.2371,275.52,93,99,3.77
72,Rybachiy,RU,2022-05-01 09:41:15,48.7073,44.7449,289.07,30,84,4.9
73,Meadow Lake,US,2022-05-01 09:41:16,34.8014,-106.5436,288.86,16,44,4.34
74,San Andres,CO,2022-05-01 09:41:17,12.5847,-81.7006,300.16,89,40,4.12
75,Vallenar,CL,2022-05-01 09:41:18,-28.5708,-70.7581,288.64,60,100,0.55
76,Fairbanks,US,2022-05-01 09:41:19,64.8378,-147.7164,275.92,61,0,4.12
77,Tiksi,RU,2022-05-01 09:41:21,71.6872,128.8694,273.03,88,86,3.06
78,Omsukchan,RU,2022-05-01 09:41:22,62.5333,155.8,264.66,98,31,2.37
79,Abnub,EG,2022-05-01 09:41:23,27.2696,31.1511,303.27,11,0,6.44
80,Tura,IN,2022-05-01 09:41:24,25.5198,90.2201,304.52,48,14,1.96
81,San Ramon,US,2022-05-01 09:41:25,37.7799,-121.978,284.05,87,100,4.63
82,Luderitz,NA,2022-05-01 09:40:11,-26.6481,15.1594,299.89,33,0,1.88
83,Khatanga,RU,2022-05-01 09:41:28,71.9667,102.5,269.72,79,23,5.69
84,Ambon,ID,2022-05-01 09:40:47,-3.6954,128.1814,305.23,62,40,2.57
85,Ambilobe,MG,2022-05-01 09:41:33,-13.2,49.05,304.5,57,3,0.51
86,Vila,PT,2022-05-01 09:41:35,42.0304,-8.1588,281.64,42,15,1.65
87,San Cristobal,VE,2022-05-01 09:41:37,7.7669,-72.225,290.93,96,97,1.89
88,Ondangwa,NA,2022-05-01 09:41:38,-17.9167,15.95,304.15,70,0,0.0
89,Bilibino,RU,2022-05-01 09:41:39,68.0546,166.4372,258.75,90,47,2.04
90,Busselton,AU,2022-05-01 09:41:40,-33.65,115.3333,289.83,71,0,4.66
91,Hamilton,US,2022-05-01 09:41:42,39.1834,-84.5333,293.62,81,100,5.14
92,Port Pirie,AU,2022-05-01 09:41:46,-33.1833,138.0167,290.2,56,3,1.68
93,Tigil,RU,2022-05-01 09:42:48,57.8,158.6667,271.36,96,83,0.61
94,Kindu,CD,2022-05-01 09:42:49,-2.95,25.95,300.39,69,100,1.39
95,Georgetown,MY,2022-05-01 09:40:03,5.4112,100.3354,304.12,74,20,2.57
96,Port Lincoln,AU,2022-05-01 09:42:51,-34.7333,135.8667,289.36,83,14,3.87
97,Bathsheba,BB,2022-05-01 09:42:52,13.2167,-59.5167,299.49,78,20,7.2
98,Acapulco,MX,2022-05-01 09:42:53,16.8634,-99.8901,297.67,70,79,1.96
99,Ondjiva,AO,2022-05-01 09:42:55,-17.0667,15.7333,299.17,41,20,2.06
100,Beringovskiy,RU,2022-05-01 09:42:56,63.05,179.3167,266.09,95,100,5.99
101,Sturgeon Bay,US,2022-05-01 09:42:58,44.8342,-87.377,281.13,93,100,4.63
102,Bandar-E Anzali,IR,2022-05-01 09:42:59,37.4727,49.4622,295.21,68,33,4.54
103,Cockburn Town,TC,2022-05-01 09:43:01,21.4612,-71.1419,298.02,70,98,9.35
104,Petatlan,MX,2022-05-01 09:43:02,17.5167,-101.2667,295.54,48,60,1.37
105,Lingao,CN,2022-05-01 09:43:03,19.9103,109.6859,293.17,95,100,8.41
106,Meulaboh,ID,2022-05-01 09:43:04,4.1363,96.1285,301.32,78,100,2.44
107,Torbay,CA,2022-05-01 09:43:06,47.6666,-52.7314,279.13,96,75,5.66
108,Athens,GR,2022-05-01 09:43:07,37.9795,23.7162,295.48,43,20,4.92
109,Dakar,SN,2022-05-01 09:43:08,14.6937,-17.4441,297.64,88,94,7.2
110,Srednekolymsk,RU,2022-05-01 09:43:09,67.45,153.6833,267.71,95,13,1.28
111,Salisbury,GB,2022-05-01 09:43:11,51.0693,-1.7957,285.11,78,75,3.09
112,Mount Gambier,AU,2022-05-01 09:43:14,-37.8333,140.7667,287.1,100,75,4.12
113,Adrar,MR,2022-05-01 09:43:16,20.5022,-10.0711,303.5,11,1,6.89
114,Olafsvik,IS,2022-05-01 09:43:17,64.8945,-23.7142,277.6,54,71,5.78
115,Atar,MR,2022-05-01 09:43:21,20.5169,-13.0499,302.18,26,30,0.0
116,Atuona,PF,2022-05-01 09:43:22,-9.8,-139.0333,298.87,78,12,7.22
117,Cabo San Lucas,MX,2022-05-01 09:43:24,22.8909,-109.9124,295.1,49,22,0.45
118,Taganak,PH,2022-05-01 09:43:25,6.0833,118.3,303.23,75,42,4.58
119,Punta Arenas,CL,2022-05-01 09:43:26,-53.15,-70.9167,278.21,87,75,3.6
120,Deputatskiy,RU,2022-05-01 09:43:24,69.3,139.9,266.6,92,12,2.05
121,Ilulissat,GL,2022-05-01 09:43:30,69.2167,-51.1,264.16,48,4,0.0
122,Sibolga,ID,2022-05-01 09:43:31,1.7427,98.7792,300.97,80,98,0.52
123,Souillac,MU,2022-05-01 09:43:33,-20.5167,57.5167,300.36,74,75,4.12
124,Alofi,NU,2022-05-01 09:43:34,-19.0595,-169.9187,298.09,94,99,1.03
125,Deyang,CN,2022-05-01 09:43:35,31.1302,104.382,294.6,28,87,0.59
126,Ostrovnoy,RU,2022-05-01 09:43:37,68.0531,39.5131,271.39,81,69,7.56
127,Jurm,AF,2022-05-01 09:43:38,36.8648,70.8342,301.34,17,100,3.2
128,Hofn,IS,2022-05-01 09:43:39,64.2539,-15.2082,280.66,76,4,4.04
129,Victoria,HK,2022-05-01 09:40:03,22.2855,114.1577,293.33,88,100,3.58
130,Passagem Franca,BR,2022-05-01 09:43:42,-6.1797,-43.7836,295.96,73,83,2.32
131,Stornoway,GB,2022-05-01 09:43:43,58.2093,-6.3865,285.33,84,100,1.54
132,Mar Del Plata,AR,2022-05-01 09:43:44,-38.0023,-57.5575,282.16,78,0,6.71
133,Coquimbo,CL,2022-05-01 09:43:46,-29.9533,-71.3436,283.0,100,0,1.03
134,Port Hawkesbury,CA,2022-05-01 09:43:47,45.6169,-61.3485,275.7,98,100,5.14
135,Kawalu,ID,2022-05-01 09:43:48,-7.3817,108.2082,298.81,90,96,1.2
136,Roma,US,2022-05-01 09:43:49,43.2128,-75.4557,275.98,81,0,0.45
137,Sitka,US,2022-05-01 09:43:50,57.0531,-135.33,285.09,47,100,5.14
138,Cabedelo,BR,2022-05-01 09:43:51,-6.9811,-34.8339,296.52,78,68,6.16
139,Kavieng,PG,2022-05-01 09:44:52,-2.5744,150.7967,301.38,72,31,2.47
140,Graham,US,2022-05-01 09:44:53,47.0529,-122.2943,282.38,90,75,1.54
141,Mao,ES,2022-05-01 09:44:55,39.8885,4.2658,292.46,59,20,1.03
142,Dalbandin,PK,2022-05-01 09:44:56,28.8947,64.4101,311.44,9,88,5.81
143,Aklavik,CA,2022-05-01 09:44:57,68.2191,-135.0107,272.83,95,100,3.51
144,Tshela,CD,2022-05-01 09:44:58,-4.9833,12.9333,304.47,64,79,0.69
145,Emerald,AU,2022-05-01 09:44:59,-23.5333,148.1667,297.23,60,96,3.6
146,Bambous Virieux,MU,2022-05-01 09:45:00,-20.3428,57.7575,301.6,74,75,4.12
147,Dongsheng,CN,2022-05-01 09:45:02,39.8161,109.9776,289.57,15,67,10.83
148,Broome,US,2022-05-01 09:45:03,42.2506,-75.833,276.1,72,71,0.89
149,Fortuna,US,2022-05-01 09:45:04,40.5982,-124.1573,282.58,96,75,2.57
150,Kota Bahru,MY,2022-05-01 09:45:05,6.1333,102.2386,302.12,65,20,2.68
151,Beloha,MG,2022-05-01 09:45:06,-25.1667,45.05,298.81,55,21,6.61
152,Dikson,RU,2022-05-01 09:45:08,73.5069,80.5464,265.86,82,99,7.52
153,Asau,RO,2022-05-01 09:45:09,46.4333,26.4,290.35,34,51,2.16
154,Tocopilla,CL,2022-05-01 09:45:10,-22.092,-70.1979,290.6,61,22,2.86
155,Severo-Kurilsk,RU,2022-05-01 09:45:12,50.6789,156.125,274.31,90,37,3.83
156,Valparaiso,CL,2022-05-01 09:45:13,-33.0393,-71.6273,285.08,76,0,2.06
157,Benguela,AO,2022-05-01 09:45:14,-12.5763,13.4055,303.85,55,65,1.67
158,Kupang,ID,2022-05-01 09:40:48,-10.1667,123.5833,300.79,77,20,5.58
159,Bershet,RU,2022-05-01 09:45:17,57.7309,56.3783,274.74,54,100,5.46
160,Minggang,CN,2022-05-01 09:45:18,32.4586,114.0486,293.36,49,97,3.11
161,Itarema,BR,2022-05-01 09:45:19,-2.9248,-39.9167,297.85,91,88,4.55
162,Shubarkuduk,KZ,2022-05-01 09:45:21,49.1447,56.4872,289.85,55,98,5.74
163,Lompoc,US,2022-05-01 09:45:22,34.6391,-120.4579,284.7,85,0,12.96
164,Tautira,PF,2022-05-01 09:45:23,-17.7333,-149.15,299.6,74,22,4.41
165,Mahibadhoo,MV,2022-05-01 09:45:25,3.7833,72.9667,302.9,74,94,8.7
166,Chichimila,MX,2022-05-01 09:45:26,20.6167,-88.2167,294.29,99,28,1.33
167,Kruisfontein,ZA,2022-05-01 09:45:27,-34.0033,24.7314,294.75,37,65,3.91
168,Contamana,PE,2022-05-01 09:45:28,-7.3333,-75.0167,294.01,100,83,0.35
169,Jalna,IN,2022-05-01 09:45:30,19.8333,75.8833,313.79,11,2,5.72
170,Kavaratti,IN,2022-05-01 09:45:31,10.5669,72.642,303.13,70,78,6.49
171,Pevek,RU,2022-05-01 09:45:32,69.7008,170.3133,255.39,99,27,2.55
172,Nago,JP,2022-05-01 09:45:33,26.5881,127.9761,294.39,79,100,6.41
173,Qiongshan,CN,2022-05-01 09:45:34,20.0058,110.3542,294.14,94,75,10.0
174,Vyshchetarasivka,UA,2022-05-01 09:45:37,47.5685,34.881,288.58,47,8,2.86
175,Uruzgan,AF,2022-05-01 09:45:38,32.8333,66.0,303.63,10,62,2.81
176,Nawabganj,BD,2022-05-01 09:42:35,24.5911,88.271,310.16,40,7,3.84
177,Nikolskoye,RU,2022-05-01 09:45:41,59.7035,30.7861,283.08,53,86,4.25
178,Saldanha,ZA,2022-05-01 09:45:42,-33.0117,17.9442,295.18,63,4,4.85
179,Baiyin,CN,2022-05-01 09:45:43,36.5583,104.2081,287.06,13,69,0.34
180,Ahipara,NZ,2022-05-01 09:45:44,-35.1667,173.1667,288.44,88,97,2.19
181,Margate,GB,2022-05-01 09:45:46,51.3813,1.3862,287.52,57,100,2.07
182,Port Hardy,CA,2022-05-01 09:45:47,50.6996,-127.4199,281.15,93,40,1.03
183,Castro,BR,2022-05-01 09:45:48,-24.7911,-50.0119,286.49,95,7,0.87
184,Caravelas,BR,2022-05-01 09:45:49,-17.7125,-39.2481,297.0,81,12,1.17
185,Najran,SA,2022-05-01 09:45:50,17.4924,44.1277,304.51,20,9,5.11
186,Airai,TL,2022-05-01 09:45:52,-8.9266,125.4092,289.94,88,75,1.33
187,Ritchie,ZA,2022-05-01 09:46:55,-29.038,24.6028,292.71,28,0,3.0
188,Portland,US,2022-05-01 09:46:56,45.5234,-122.6762,283.49,92,100,1.54
189,Nouadhibou,MR,2022-05-01 09:46:57,20.931,-17.0347,294.14,68,92,8.23
190,Gavle,SE,2022-05-01 09:46:58,60.6745,17.1417,288.55,38,7,1.07
191,Gnjilane,XK,2022-05-01 09:47:00,42.4604,21.4699,289.33,74,51,0.45
192,Avarua,CK,2022-05-01 09:47:02,-21.2078,-159.775,297.18,94,100,0.51
193,Nakusp,CA,2022-05-01 09:47:03,50.2499,-117.8023,277.34,87,20,0.51
194,Lasa,IT,2022-05-01 09:47:04,46.6166,10.7002,283.64,84,99,0.46
195,Ponta Do Sol,PT,2022-05-01 09:47:07,32.6667,-17.1,294.5,41,0,0.6
196,Los Palacios,CU,2022-05-01 09:47:08,22.5872,-83.2486,293.57,81,2,2.61
197,San Patricio,US,2022-05-01 09:47:09,28.017,-97.5169,299.07,96,29,2.65
198,Gerash,IR,2022-05-01 09:47:10,27.6652,54.1371,302.23,19,0,5.41
199,Vostok,RU,2022-05-01 09:47:12,46.4856,135.8833,274.95,91,100,1.69
200,East London,ZA,2022-05-01 09:47:13,-33.0153,27.9116,295.67,40,0,8.23
201,Lebanon,US,2022-05-01 09:47:14,36.2081,-86.2911,294.27,93,100,4.68
202,Upernavik,GL,2022-05-01 09:47:15,72.7868,-56.1549,255.19,73,11,1.76
203,Te Anau,NZ,2022-05-01 09:47:17,-45.4167,167.7167,283.86,92,65,1.52
204,Lorengau,PG,2022-05-01 09:47:18,-2.0226,147.2712,300.61,77,85,2.35
205,Bethel,US,2022-05-01 09:47:19,41.3712,-73.414,279.77,75,0,0.0
206,Fujin,CN,2022-05-01 09:47:20,47.26,132.0322,280.67,62,100,2.3
207,Hoquiam,US,2022-05-01 09:47:21,46.9809,-123.8893,282.14,91,75,0.0
208,Porto Novo,BJ,2022-05-01 09:47:23,6.4965,2.6036,304.05,58,45,4.02
209,Meoqui,MX,2022-05-01 09:47:24,28.2833,-105.4833,291.39,47,87,1.63
210,Andenes,NO,2022-05-01 09:47:25,69.3143,16.1194,274.14,93,75,8.75
211,Dicabisagan,PH,2022-05-01 09:47:26,17.0818,122.4157,300.7,79,66,3.16
212,Lavrentiya,RU,2022-05-01 09:47:27,65.5833,-171.0,262.8,90,42,4.43
213,Boueni,YT,2022-05-01 09:47:29,-12.9025,45.0761,304.14,85,100,5.66
214,Laguna,US,2022-05-01 09:47:30,38.421,-121.4238,285.31,80,0,3.09
215,Alyangula,AU,2022-05-01 09:47:31,-13.8483,136.4192,301.08,69,7,1.54
216,Leh,IN,2022-05-01 09:45:00,34.1667,77.5833,286.01,25,32,3.23
217,Mahebourg,MU,2022-05-01 09:47:33,-20.4081,57.7,301.62,74,75,4.12
218,Provideniya,RU,2022-05-01 09:47:35,64.3833,-173.3,269.47,85,95,5.01
219,Baruun-Urt,MN,2022-05-01 09:47:36,46.6806,113.2792,290.18,29,99,5.37
220,Humberto De Campos,BR,2022-05-01 09:47:37,-2.5983,-43.4611,297.37,93,38,0.92
221,Dauphin,CA,2022-05-01 09:47:38,51.1494,-100.0502,276.23,87,100,7.72
222,Port Augusta,AU,2022-05-01 09:47:32,-32.5,137.7667,290.28,51,0,2.98
223,Krasnoselkup,RU,2022-05-01 09:47:43,65.7,82.4667,274.22,90,100,11.49
224,Taltal,CL,2022-05-01 09:47:44,-25.4,-70.4833,287.12,85,37,0.13
225,Rio Gallegos,AR,2022-05-01 09:47:46,-51.6226,-69.2181,277.18,75,0,6.17
226,Beyneu,KZ,2022-05-01 09:47:47,45.3167,55.2,300.53,35,5,5.42
227,Anahuac,MX,2022-05-01 09:47:48,27.2333,-100.15,296.76,86,59,7.14
228,Sarangani,PH,2022-05-01 09:47:51,5.4033,125.4636,301.09,74,100,2.11
229,Saint Anthony,US,2022-05-01 09:47:52,45.0205,-93.218,282.31,95,100,4.12
230,Butaritari,KI,2022-05-01 09:47:53,3.0707,172.7902,300.31,81,100,5.25
231,Ghazipur,IN,2022-05-01 09:47:55,25.5833,83.5667,316.09,13,3,3.05
232,Waipawa,NZ,2022-05-01 09:48:58,-41.4122,175.5153,285.83,83,57,4.85
233,Mortka,RU,2022-05-01 09:49:00,59.3322,66.0214,282.54,35,88,4.01
234,Jizan,SA,2022-05-01 09:49:02,17.3333,42.6667,308.67,30,20,8.04
235,Sainte-Marie,RE,2022-05-01 09:49:03,-20.8968,55.5496,302.24,74,100,5.66
236,Songjianghe,CN,2022-05-01 09:49:04,42.1859,127.479,277.63,60,100,1.39
237,Clocolan,ZA,2022-05-01 09:49:05,-28.9137,27.5656,290.06,29,0,0.96
238,Strezhevoy,RU,2022-05-01 09:49:06,60.7333,77.5889,278.24,47,1,4.3
239,Estelle,US,2022-05-01 09:49:08,29.8458,-90.1067,297.15,84,20,2.57
240,Minab,IR,2022-05-01 09:49:09,27.1467,57.0801,304.68,42,0,8.68
241,Homer,US,2022-05-01 09:49:10,59.6425,-151.5483,278.04,82,100,11.62
242,Tilichiki,RU,2022-05-01 09:49:11,60.4667,166.1,267.74,88,83,2.97
243,Saint-Pierre,RE,2022-05-01 09:49:13,-21.3393,55.4781,301.97,67,0,3.6
244,Peniche,PT,2022-05-01 09:49:14,39.3558,-9.3811,289.98,77,22,6.21
245,Clifton,US,2022-05-01 09:49:15,40.8584,-74.1638,282.83,69,0,3.09
246,Limon,CR,2022-05-01 09:49:17,10.0,-83.0333,297.72,90,100,3.92
247,Loviisa,FI,2022-05-01 09:49:19,60.4566,26.2251,283.87,59,82,3.87
248,Mata,PT,2022-05-01 09:49:20,40.683,-7.4592,294.6,37,51,2.69
249,Herat,AF,2022-05-01 09:49:21,34.5,62.0,301.92,24,100,5.2
250,Kailua,US,2022-05-01 09:46:57,21.4022,-157.7394,297.14,84,75,6.17
251,Egvekinot,RU,2022-05-01 09:49:23,66.3167,-179.1667,257.76,81,46,5.32
252,Hovd,MN,2022-05-01 09:49:24,48.0056,91.6419,293.37,10,77,4.09
253,Coihaique,CL,2022-05-01 09:49:26,-45.5752,-72.0662,280.12,93,40,3.6
254,Sao Joao Da Barra,BR,2022-05-01 09:49:27,-21.6403,-41.0511,295.2,91,44,2.56
255,Chicama,PE,2022-05-01 09:49:28,-7.8447,-79.1469,292.2,85,83,1.51
256,Butterworth,MY,2022-05-01 09:45:28,5.3991,100.3638,304.18,74,20,2.57
257,Pietarsaari,FI,2022-05-01 09:49:30,63.65,22.6833,278.22,61,100,1.79
258,Kahului,US,2022-05-01 09:49:31,20.8947,-156.47,296.16,82,20,7.2
259,Okhotsk,RU,2022-05-01 09:49:33,59.3833,143.3,274.19,91,63,1.75
260,Teupasenti,HN,2022-05-01 09:49:35,14.2167,-86.7,293.66,89,96,1.07
261,Katsuura,JP,2022-05-01 09:49:36,35.1333,140.3,289.16,92,100,4.75
262,Slupca,PL,2022-05-01 09:49:37,52.2873,17.8719,291.04,41,21,0.52
263,Swift Current,CA,2022-05-01 09:49:38,50.2834,-107.8014,276.6,70,0,2.57
264,Two Hills,CA,2022-05-01 09:49:39,53.7169,-111.7518,279.28,70,100,4.12
265,Monteiro,BR,2022-05-01 09:49:40,-7.8894,-37.12,294.03,80,34,3.65
266,Half Moon Bay,US,2022-05-01 09:49:42,37.4636,-122.4286,284.85,86,100,11.83
267,Borogontsy,RU,2022-05-01 09:49:43,62.6683,131.1683,276.57,80,74,2.37
268,Ampanihy,MG,2022-05-01 09:49:44,-24.7,44.75,300.27,42,47,5.17
269,Vila Velha,BR,2022-05-01 09:49:45,-20.3297,-40.2925,294.79,91,20,0.45
270,Kaeo,NZ,2022-05-01 09:49:47,-35.1,173.7833,288.33,94,96,2.91
271,Salalah,OM,2022-05-01 09:49:48,17.0151,54.0924,307.2,62,0,7.2
272,Rawson,AR,2022-05-01 09:49:49,-43.3002,-65.1023,280.47,73,17,3.61
273,Helsinki,FI,2022-05-01 09:49:50,60.1695,24.9355,285.25,53,20,4.63
274,Huilong,CN,2022-05-01 09:49:51,31.8111,121.655,287.18,59,100,2.68
275,Notre-Dame-Du-Lac,CA,2022-05-01 09:49:54,47.6136,-68.7964,275.86,94,100,3.46
276,Beatrice,US,2022-05-01 09:49:55,40.2681,-96.747,281.03,76,0,4.12
277,Pisco,PE,2022-05-01 09:50:56,-13.7,-76.2167,290.38,82,0,3.09
278,Port Hedland,AU,2022-05-01 09:50:57,-20.3167,118.5667,303.18,39,99,4.63
279,Ciudad Bolivar,VE,2022-05-01 09:50:59,8.1222,-63.5497,298.18,75,69,4.06
280,Bengkulu,ID,2022-05-01 09:50:58,-3.8004,102.2655,301.54,72,95,2.71
281,Geraldton,AU,2022-05-01 09:49:17,-28.7667,114.6,296.38,53,0,6.17
282,Wenling,CN,2022-05-01 09:51:02,28.3669,121.36,287.39,84,100,2.88
283,Ternate,ID,2022-05-01 09:51:03,0.8,127.4,301.28,72,83,1.68
284,Takoradi,GH,2022-05-01 09:51:04,4.8845,-1.7554,302.47,69,86,2.56
285,Lebu,CL,2022-05-01 09:51:06,-37.6167,-73.65,282.57,84,73,5.94
286,Novikovo,RU,2022-05-01 09:51:07,51.1537,37.8879,285.07,39,31,2.43
287,Bage,BR,2022-05-01 09:51:08,-31.3314,-54.1069,285.03,94,0,1.03
288,Kodiak,US,2022-05-01 09:51:10,57.79,-152.4072,277.88,87,100,9.77
289,Saint George,US,2022-05-01 09:51:11,37.1041,-113.5841,290.48,19,0,4.12
290,Vila Franca Do Campo,PT,2022-05-01 09:51:12,37.7167,-25.4333,291.59,69,0,0.96
291,High Level,CA,2022-05-01 09:51:13,58.5169,-117.136,277.21,70,100,2.57
292,Camopi,GF,2022-05-01 09:51:14,3.1655,-52.3158,294.41,97,57,0.74
293,Xinqing,CN,2022-05-01 09:51:16,48.2333,129.5,279.24,84,100,1.39
294,Gombong,ID,2022-05-01 09:51:17,-7.6072,109.5142,299.8,87,92,1.9
295,Okha,RU,2022-05-01 09:51:18,53.5739,142.9478,270.8,96,81,2.32
296,Ancud,CL,2022-05-01 09:51:19,-41.8697,-73.8203,282.73,92,100,1.47
297,Adre,TD,2022-05-01 09:51:20,13.4667,22.2,311.96,6,100,5.39
298,Vaitape,PF,2022-05-01 09:51:21,-16.5167,-151.75,300.33,73,60,5.48
299,Yumen,CN,2022-05-01 09:51:23,40.2833,97.2,290.81,8,0,4.39
300,Barcelos,PT,2022-05-01 09:51:24,41.5388,-8.6151,287.51,64,31,1.73
301,Bereda,ES,2022-05-01 09:51:25,43.2686,-7.5406,291.38,50,40,0.48
302,Shitanjing,CN,2022-05-01 09:51:26,39.2342,106.3439,289.15,10,4,7.14
303,Skelleftea,SE,2022-05-01 09:51:28,64.7507,20.9528,279.35,39,0,4.12
304,Maues,BR,2022-05-01 09:51:30,-3.3836,-57.7186,295.24,99,82,1.03
305,Flinders,AU,2022-05-01 09:51:31,-34.5833,150.8552,288.92,80,4,1.4
306,Gori,GE,2022-05-01 09:51:33,41.9842,44.1158,293.5,57,94,5.78
307,Lillooet,CA,2022-05-01 09:51:34,50.6856,-121.942,278.05,90,23,1.65
308,Stephenville,US,2022-05-01 09:51:35,32.2207,-98.2023,289.22,53,40,1.54
309,Inirida,CO,2022-05-01 09:51:36,3.8653,-67.9239,294.74,98,99,0.88
310,Brae,GB,2022-05-01 09:51:37,60.3964,-1.353,282.43,70,98,4.7
311,Rudbar,AF,2022-05-01 09:51:39,30.15,62.6,310.11,13,92,1.85
312,Uspenka,UA,2022-05-01 09:51:40,48.3903,39.1619,288.89,39,24,5.3
313,Saint-Augustin,CA,2022-05-01 09:51:43,51.226,-58.6502,274.33,87,100,10.73
314,Tazovskiy,RU,2022-05-01 09:51:44,67.4667,78.7,270.58,82,100,4.33
315,Poum,NC,2022-05-01 09:51:45,-20.2333,164.0167,298.23,78,6,1.69
316,Port Alfred,ZA,2022-05-01 09:51:47,-33.5906,26.891,294.92,55,62,3.13
317,San Carlos,VE,2022-05-01 09:51:50,9.6612,-68.5827,294.93,94,100,0.68
318,Los Llanos De Aridane,ES,2022-05-01 09:51:51,28.6585,-17.9182,292.01,79,20,6.17
319,Mnogovershinnyy,RU,2022-05-01 09:51:52,53.9353,139.9242,270.88,98,100,0.82
320,Nalut,LY,2022-05-01 09:51:55,30.3333,10.85,295.42,38,0,7.07
321,Betsiamites,CA,2022-05-01 09:51:56,48.9413,-68.646,277.2,80,89,4.0
322,Gorontalo,ID,2022-05-01 09:51:40,0.5412,123.0595,299.19,92,97,0.73
323,Mitchell,US,2022-05-01 09:52:59,43.7094,-98.0298,279.14,82,100,6.17
324,Ekibastuz,KZ,2022-05-01 09:53:00,51.6667,75.3667,302.31,22,92,6.97
325,Cayenne,GF,2022-05-01 09:53:01,4.9333,-52.3333,298.76,1,75,0.0
326,Khromtau,KZ,2022-05-01 09:53:03,50.2503,58.4347,286.69,65,96,4.72
327,Maceio,BR,2022-05-01 09:53:04,-9.6658,-35.7353,294.84,94,20,2.06
328,Alta Gracia,AR,2022-05-01 09:53:05,-31.6529,-64.4283,279.2,63,0,1.77
329,Petropavlovsk-Kamchatskiy,RU,2022-05-01 09:50:12,53.0452,158.6483,277.48,60,75,4.0
330,Springfield,US,2022-05-01 09:53:07,37.2153,-93.2982,284.81,83,0,2.24
331,Isangel,VU,2022-05-01 09:53:08,-19.55,169.2667,299.21,89,100,2.57
332,Lac-Megantic,CA,2022-05-01 09:53:10,45.5834,-70.8823,275.66,95,90,1.05
333,Ballina,AU,2022-05-01 09:51:22,-28.8667,153.5667,292.13,96,75,3.09
334,Cap Malheureux,MU,2022-05-01 09:53:12,-19.9842,57.6142,301.74,67,6,3.58
335,Laela,TZ,2022-05-01 09:53:13,-8.5667,32.05,295.41,66,24,4.1
336,Taguatinga,BR,2022-05-01 09:53:15,-12.3857,-46.5711,294.31,65,51,1.65
337,Kampene,CD,2022-05-01 09:53:16,-3.6,26.6667,300.73,66,84,1.55
338,Vestmannaeyjar,IS,2022-05-01 09:53:17,63.4427,-20.2734,281.7,76,40,6.69
339,Gizo,SB,2022-05-01 09:53:18,-8.103,156.8419,301.3,73,100,0.89
340,Pangnirtung,CA,2022-05-01 09:53:19,66.1451,-65.7125,268.7,94,100,1.34
341,Johnstown,US,2022-05-01 09:53:21,40.3267,-78.922,288.59,57,75,3.09
342,Honningsvag,NO,2022-05-01 09:53:22,70.9821,25.9704,273.01,55,75,2.57
343,Touros,BR,2022-05-01 09:53:23,-5.1989,-35.4608,299.74,79,94,6.22
344,North Las Vegas,US,2022-05-01 09:53:13,36.1989,-115.1175,296.14,11,0,8.75
345,Minot,US,2022-05-01 09:53:27,48.2325,-101.2963,276.27,70,0,7.72
346,Okitipupa,NG,2022-05-01 09:53:28,6.5047,4.7839,306.66,51,48,2.1
347,Dingle,PH,2022-05-01 09:53:29,10.9995,122.6711,299.87,75,97,2.69
348,Grand-Santi,GF,2022-05-01 09:53:31,4.25,-54.3833,294.07,98,41,0.49
349,Suntar,RU,2022-05-01 09:53:32,62.1444,117.6319,273.97,96,100,4.69
350,Dinar,TR,2022-05-01 09:53:33,38.065,30.1656,291.13,47,20,3.45
351,Bud,US,2022-05-01 09:53:34,39.447,-86.1758,289.52,89,66,3.08
352,Axim,GH,2022-05-01 09:53:36,4.8699,-2.2405,302.84,69,87,2.72
353,Lamar,US,2022-05-01 09:53:37,33.6668,-95.5836,285.1,94,0,2.06
354,Dudinka,RU,2022-05-01 09:53:38,69.4058,86.1778,269.61,85,87,6.22
355,Arlit,NE,2022-05-01 09:53:41,18.7369,7.3853,311.08,5,44,4.82
356,Raga,SS,2022-05-01 09:53:42,8.4596,25.678,313.5,20,100,1.23
357,Hambantota,LK,2022-05-01 09:52:36,6.1241,81.1185,304.34,74,20,5.66
358,Dharchula,IN,2022-05-01 09:53:44,29.85,80.5333,302.0,28,98,3.14
359,Leningradskiy,RU,2022-05-01 09:53:47,69.3833,178.4167,255.34,97,52,2.09
360,Coos Bay,US,2022-05-01 09:53:48,43.3665,-124.2179,281.44,100,100,2.57
361,Ulkan,RU,2022-05-01 09:53:51,57.243,107.3223,282.95,91,100,4.0
362,Asyut,EG,2022-05-01 09:53:52,27.181,31.1837,303.25,11,0,6.59
363,Zeya,RU,2022-05-01 09:53:55,53.75,127.2667,282.05,29,92,2.08
364,Beliu,RO,2022-05-01 09:53:56,46.4833,21.9833,292.92,48,14,0.21
365,Kinna,SE,2022-05-01 09:53:57,57.5073,12.6946,289.71,28,14,1.01
366,Verkhnevilyuysk,RU,2022-05-01 09:53:58,63.4453,120.3167,273.17,89,100,3.62
367,Kamenka,RU,2022-05-01 09:53:59,51.3223,42.7678,283.19,36,6,4.67
368,Maumere,ID,2022-05-01 09:51:34,-8.6199,122.2111,301.22,73,88,0.91
369,Berlevag,NO,2022-05-01 09:55:04,70.8578,29.0864,271.04,61,100,3.67
370,Klyuchi,RU,2022-05-01 09:55:06,52.2667,79.1667,301.99,16,100,3.74
371,Clyde River,CA,2022-05-01 09:55:09,70.4692,-68.5914,261.28,92,100,4.63
372,Conneaut,US,2022-05-01 09:55:10,41.9476,-80.5542,289.4,76,100,4.94
373,Labuhan,ID,2022-05-01 09:55:11,-6.8844,112.2051,302.17,78,65,4.23
374,Turan,VN,2022-05-01 09:52:33,16.0678,108.2208,301.14,83,75,3.6
375,Mpulungu,ZM,2022-05-01 09:55:15,-8.7623,31.1141,300.75,59,3,1.36
376,Williams Lake,CA,2022-05-01 09:55:19,52.1415,-122.1445,277.91,92,0,0.0
377,Dalvik,IS,2022-05-01 09:55:20,65.9702,-18.5286,282.11,79,84,5.49
378,Nampula,MZ,2022-05-01 09:55:21,-15.1165,39.2666,299.12,69,75,6.26
379,Barabash,RU,2022-05-01 09:55:22,43.2,131.4833,279.11,92,100,1.35
380,Marsala,IT,2022-05-01 09:55:12,37.7966,12.4352,293.67,64,100,3.72
381,Haines Junction,CA,2022-05-01 09:55:24,60.7522,-137.5108,271.12,74,100,1.54
382,Tambacounda,SN,2022-05-01 09:55:26,13.7539,-13.7586,306.01,24,61,1.54
383,Batticaloa,LK,2022-05-01 09:55:27,7.7102,81.6924,304.84,63,78,3.99
384,Murupara,NZ,2022-05-01 09:55:28,-38.4667,176.7,285.6,99,71,0.44
385,Tutoia,BR,2022-05-01 09:55:30,-2.7619,-42.2744,297.73,90,37,1.81
386,Antalaha,MG,2022-05-01 09:55:31,-14.9003,50.2788,301.18,72,25,4.43
387,Flagstaff,US,2022-05-01 09:55:32,35.1981,-111.6513,283.96,30,0,0.89
388,Eganville,CA,2022-05-01 09:55:33,45.5334,-77.0994,270.66,94,32,0.23
389,Guerrero Negro,MX,2022-05-01 09:55:34,27.9769,-114.0611,287.68,90,100,3.97
390,Loa Janan,ID,2022-05-01 09:55:35,-0.583,117.095,299.89,84,98,1.23
391,Riyadh,SA,2022-05-01 09:52:14,24.6877,46.7219,310.23,10,0,7.62
392,Rouvroy,FR,2022-05-01 09:55:37,50.3925,2.904,288.47,46,100,1.57
393,Skjervoy,NO,2022-05-01 09:55:39,70.0311,20.9714,280.15,60,98,4.02
394,Oussouye,SN,2022-05-01 09:55:40,12.485,-16.5469,296.25,38,6,2.5
395,Hualmay,PE,2022-05-01 09:55:41,-11.0964,-77.6139,291.21,89,19,3.08
396,Kanniyakumari,IN,2022-05-01 09:55:42,8.0833,77.5667,304.59,70,40,11.94
397,Ixtapa,MX,2022-05-01 09:55:43,20.7,-105.2,294.94,68,98,1.34
398,Manaure,CO,2022-05-01 09:55:44,11.7751,-72.4445,300.77,80,100,1.67
399,Porterville,US,2022-05-01 09:55:45,36.0652,-119.0168,289.68,67,0,1.23
400,Paralia,GR,2022-05-01 09:55:22,38.2,21.7,296.92,47,64,3.65
401,Kedgwick,CA,2022-05-01 09:55:49,47.6446,-67.3434,273.31,96,100,2.68
402,La Roche-Sur-Yon,FR,2022-05-01 09:55:29,46.6667,-1.4333,289.3,51,0,4.63
403,Abha,SA,2022-05-01 09:55:51,18.2164,42.5053,299.29,14,20,5.14
404,Balkhash,KZ,2022-05-01 09:55:52,46.844,74.9804,302.49,20,0,6.0
405,College,US,2022-05-01 09:55:54,64.8569,-147.8028,275.7,63,0,4.12
406,Komsomolskiy,UZ,2022-05-01 09:55:55,40.4272,71.7189,303.55,20,100,3.09
407,Oktyabrskiy,RU,2022-05-01 09:55:56,54.4815,53.471,281.83,43,88,6.02
408,Sept-Iles,CA,2022-05-01 09:55:58,50.2001,-66.3821,276.51,69,100,5.14
409,Samarai,PG,2022-05-01 09:56:00,-10.6167,150.6667,300.15,81,17,4.4
410,Tekeli,KZ,2022-05-01 09:56:01,44.83,78.8239,297.13,28,54,2.65
411,Morrope,PE,2022-05-01 09:56:02,-6.5417,-80.0111,291.5,87,100,3.33
412,Umuarama,BR,2022-05-01 09:56:04,-23.7664,-53.325,291.99,87,90,2.35
413,Nhulunbuy,AU,2022-05-01 09:57:06,-12.2333,136.7667,300.49,74,5,4.12
414,Auki,SB,2022-05-01 09:57:06,-8.7676,160.7034,298.79,85,100,2.21
415,Aswan,EG,2022-05-01 09:57:08,24.0934,32.907,307.76,10,0,7.2
416,Gladstone,AU,2022-05-01 09:54:59,-23.85,151.25,297.11,73,60,5.14
417,Ivanovice Na Hane,CZ,2022-05-01 09:57:10,49.3054,17.0934,293.08,57,100,2.62
418,Tecoanapa,MX,2022-05-01 09:57:11,16.5167,-98.75,298.01,72,74,2.3
419,Calvinia,ZA,2022-05-01 09:57:13,-31.4707,19.776,294.25,20,4,3.47
420,Ahuimanu,US,2022-05-01 09:57:15,21.4447,-157.8378,296.4,85,75,6.17
421,Hami,CN,2022-05-01 09:56:22,42.8,93.45,296.86,7,0,2.2
422,Buraydah,SA,2022-05-01 09:57:17,26.326,43.975,307.4,10,0,5.86
423,Kloulklubed,PW,2022-05-01 09:57:18,7.0419,134.2556,301.86,76,96,6.11
424,Beidao,CN,2022-05-01 09:57:20,34.5686,105.8933,290.9,23,93,2.73
425,Norsup,VU,2022-05-01 09:57:21,-16.0667,167.3833,299.44,81,100,2.44
426,Madimba,TZ,2022-05-01 09:57:22,-10.4,40.3333,302.03,57,12,6.04
427,Reguengos De Monsaraz,PT,2022-05-01 09:57:25,38.4253,-7.5349,294.27,37,38,4.58
428,Puerto Gaitan,CO,2022-05-01 09:57:26,4.3133,-72.0816,294.04,96,68,2.4
429,Mildura,AU,2022-05-01 09:53:13,-34.2,142.15,287.13,77,0,1.54
430,La Playona,HN,2022-05-01 09:57:28,15.1167,-88.9833,296.47,97,100,0.49
431,Charagua,BO,2022-05-01 09:57:30,-19.8,-63.2167,287.79,98,37,1.3
432,Susangerd,IR,2022-05-01 09:56:59,31.5608,48.1831,309.7,16,4,7.25
433,Sehithwa,BW,2022-05-01 09:57:33,-20.4667,22.7167,302.52,23,5,3.36
434,Nuuk,GL,2022-05-01 09:57:03,64.1835,-51.7216,264.73,77,2,4.13
435,Quatre Cocos,MU,2022-05-01 09:57:36,-20.2078,57.7625,301.53,75,27,4.86
436,Grants,US,2022-05-01 09:57:37,35.1473,-107.8514,275.28,25,0,0.0
437,Seoul,KR,2022-05-01 09:54:15,37.5683,126.9778,289.81,35,0,6.69
438,Gaoual,GN,2022-05-01 09:57:39,11.75,-13.2,306.85,39,85,1.35
439,Juan Aldama,MX,2022-05-01 09:57:41,24.2908,-103.3944,289.02,29,13,1.28
440,Tevaitoa,PF,2022-05-01 09:57:42,-16.7833,-151.5,300.26,73,59,5.62
441,Mandla,IN,2022-05-01 09:57:15,22.6,80.3833,315.78,7,66,5.03
442,El Tigre,VE,2022-05-01 09:57:45,8.8875,-64.2454,296.26,82,95,5.75
443,Kaseda,JP,2022-05-01 09:53:13,31.4167,130.3167,289.91,74,100,7.96
444,Alice Springs,AU,2022-05-01 09:54:27,-23.7,133.8833,291.9,52,90,3.09
445,Richards Bay,ZA,2022-05-01 09:57:48,-28.783,32.0377,295.7,60,14,5.18
446,Luena,AO,2022-05-01 09:57:50,-11.7833,19.9167,298.25,57,0,4.63
447,Jalu,LY,2022-05-01 09:57:51,29.0331,21.5482,308.33,9,96,8.86
448,Rivadavia,AR,2022-05-01 09:57:52,-33.1905,-68.4608,283.19,59,0,3.41
449,Itanagar,IN,2022-05-01 09:57:53,27.1,93.6167,301.1,55,100,0.56
450,Plouzane,FR,2022-05-01 09:57:54,48.3833,-4.6167,288.33,65,0,2.57
451,Nelson Bay,AU,2022-05-01 09:57:56,-32.7167,152.15,290.93,92,89,1.88
452,Same,TZ,2022-05-01 09:57:45,-4.0667,37.7333,301.22,50,90,3.54
453,Bayshore Gardens,US,2022-05-01 09:56:11,27.4253,-82.5904,294.89,80,82,3.85
454,Luanda,AO,2022-05-01 09:54:04,-8.8368,13.2343,303.15,66,20,2.57
455,Miyako,JP,2022-05-01 09:57:37,39.6367,141.9525,281.38,98,100,0.69
456,San Jose,US,2022-05-01 09:58:04,37.3394,-121.895,284.85,79,20,0.89
457,Douglas,US,2022-05-01 09:58:05,41.3,-96.167,281.26,79,75,6.69
458,Vredendal,ZA,2022-05-01 09:58:06,-31.6683,18.5012,298.2,21,6,1.64
459,Kant,IN,2022-05-01 09:57:05,27.8,79.8,315.46,13,17,3.41
460,Playa Vicente,MX,2022-05-01 09:58:08,17.8333,-95.8167,298.16,82,67,1.85
461,Huarmey,PE,2022-05-01 09:58:09,-10.0681,-78.1522,291.55,89,80,2.13
462,Villa Carlos Paz,AR,2022-05-01 09:59:11,-31.4241,-64.4978,278.37,64,0,1.79
463,Yaan,NG,2022-05-01 09:59:13,7.3833,8.5667,303.66,53,100,1.87
464,Matamoros,MX,2022-05-01 09:59:15,25.5333,-103.25,295.05,66,3,1.17
465,Tullamore,IE,2022-05-01 09:59:16,53.2739,-7.4889,284.9,89,100,3.2
466,Kieta,PG,2022-05-01 09:59:18,-6.2167,155.6333,299.95,80,96,0.29
467,Jvari,GE,2022-05-01 09:59:20,42.7169,42.052,288.14,94,100,2.7
468,Mizdah,LY,2022-05-01 09:57:39,31.4451,12.9801,296.9,32,0,4.91
469,Santa Isabel Do Rio Negro,BR,2022-05-01 09:59:22,-0.4139,-65.0192,294.57,99,76,0.39
470,Wetaskiwin,CA,2022-05-01 09:59:23,52.9668,-113.3687,279.86,83,100,3.96
471,Balabac,PH,2022-05-01 09:59:17,7.9868,117.0645,301.36,78,98,3.97
472,Sao Filipe,CV,2022-05-01 09:57:03,14.8961,-24.4956,295.79,73,0,2.73
473,Rio Grande,BR,2022-05-01 09:56:26,-32.035,-52.0986,288.71,80,100,2.32
474,Lazaro Cardenas,MX,2022-05-01 09:55:28,17.9583,-102.2,294.49,81,62,2.28
475,Teluknaga,ID,2022-05-01 09:59:31,-6.0989,106.6381,303.81,79,40,2.57
476,La Reforma,MX,2022-05-01 09:59:33,25.0833,-108.05,293.31,67,97,1.93
477,Teahupoo,PF,2022-05-01 09:59:34,-17.8333,-149.2667,295.13,75,28,4.86
478,Birjand,IR,2022-05-01 09:59:35,32.8663,59.2211,301.41,20,75,6.17
479,San Quintin,MX,2022-05-01 09:59:36,30.4833,-115.95,287.41,93,47,3.49
480,Muisne,EC,2022-05-01 09:59:37,0.6,-80.0333,297.56,86,100,2.56
481,Sabirabad,AZ,2022-05-01 09:59:38,40.0095,48.4752,298.19,42,67,3.67
482,Moorhead,US,2022-05-01 09:59:40,46.8739,-96.7676,277.16,93,100,8.23
483,Tamiahua,MX,2022-05-01 09:59:41,21.2667,-97.45,297.98,94,9,2.9
484,Manggar,ID,2022-05-01 09:59:42,-2.8833,108.2667,302.74,71,99,2.81
485,Batagay,RU,2022-05-01 09:59:43,67.6333,134.6333,275.7,75,90,5.77
486,Chala,TZ,2022-05-01 09:59:44,-7.5833,31.2667,294.07,69,17,2.39
487,Tuatapere,NZ,2022-05-01 09:59:47,-46.1333,167.6833,283.64,96,45,1.55
488,Kushiro,JP,2022-05-01 09:55:33,42.975,144.3747,278.68,100,75,9.26
489,Annapolis,US,2022-05-01 09:59:50,38.9785,-76.4922,283.72,89,72,0.45
490,Tarrafal,CV,2022-05-01 09:59:51,15.2833,-23.7667,296.59,76,1,7.2
491,Codrington,AU,2022-05-01 09:59:52,-38.2667,141.9667,287.99,79,88,4.04
492,Ler,SS,2022-05-01 09:59:54,8.3018,30.1418,311.3,26,49,2.37
493,Bubaque,GW,2022-05-01 09:59:55,11.2833,-15.8333,298.1,70,58,1.27
494,Sorland,NO,2022-05-01 09:59:58,67.667,12.6934,277.23,94,100,7.1
495,Maniitsoq,GL,2022-05-01 09:59:59,65.4167,-52.9,266.6,67,4,2.38
496,Mount Isa,AU,2022-05-01 10:00:01,-20.7333,139.5,300.02,44,16,3.6
497,Fort Collins,US,2022-05-01 10:00:02,40.5853,-105.0844,278.36,58,85,0.89
498,Vao,NC,2022-05-01 10:00:05,-22.6667,167.4833,297.38,83,49,10.29
499,Emba,KZ,2022-05-01 10:00:07,48.8264,58.1442,289.24,61,83,5.26
500,Grindavik,IS,2022-05-01 10:00:09,63.8424,-22.4338,280.41,87,75,4.12
501,Tena,EC,2022-05-01 09:55:31,-0.9833,-77.8167,292.65,81,100,1.18
502,Rocha,UY,2022-05-01 09:56:26,-34.4833,-54.3333,282.94,93,51,2.07
503,Belaya Gora,RU,2022-05-01 10:00:16,68.5333,146.4167,268.53,96,30,2.2
504,Pionerskiy,RU,2022-05-01 10:00:17,54.9508,20.2275,287.06,75,98,5.62
505,Kurayoshi,JP,2022-05-01 10:00:19,35.4333,133.8167,283.49,69,34,2.0
506,Breyten,ZA,2022-05-01 10:00:20,-26.3018,29.987,290.52,42,0,1.97
507,Talnakh,RU,2022-05-01 10:01:21,69.4865,88.3972,268.8,83,95,5.75
508,Charleston,US,2022-05-01 10:01:23,32.7766,-79.9309,292.6,94,12,0.0
509,Nakhon Phanom,TH,2022-05-01 10:01:04,17.3333,104.4167,297.21,74,99,5.42
510,Mancio Lima,BR,2022-05-01 09:56:26,-7.6142,-72.8958,293.93,99,91,1.03
511,Sambava,MG,2022-05-01 10:01:28,-14.2667,50.1667,300.66,74,21,4.41
512,Altay,CN,2022-05-01 10:01:29,47.8667,88.1167,292.92,27,94,3.12
513,Acarau,BR,2022-05-01 09:56:40,-2.8856,-40.12,297.97,90,91,4.6
514,Timra,SE,2022-05-01 10:01:31,62.487,17.3257,281.97,57,100,4.63
515,Shingu,JP,2022-05-01 09:57:28,33.7333,135.9833,288.25,86,100,1.26
516,Sur,OM,2022-05-01 10:01:35,22.5667,59.5289,305.88,45,0,5.32
517,Barra Bonita,BR,2022-05-01 10:00:32,-22.4947,-48.5581,290.73,93,38,0.93
518,Nurota,UZ,2022-05-01 10:01:38,40.5614,65.6886,305.05,26,96,7.07
519,Hasaki,JP,2022-05-01 10:00:05,35.7333,140.8333,287.37,86,100,6.44
520,Honiara,SB,2022-05-01 10:01:42,-9.4333,159.95,299.15,85,100,0.45
521,Waddan,LY,2022-05-01 09:57:39,29.1614,16.139,308.08,10,100,8.31
522,Culpeper,US,2022-05-01 10:01:44,38.5004,-77.9664,284.99,87,100,0.89
523,Vardo,NO,2022-05-01 10:01:46,70.3705,31.1107,271.62,66,100,5.03
524,Aanekoski,FI,2022-05-01 10:01:48,62.6946,25.818,281.3,55,96,0.66
525,Qitaihe,CN,2022-05-01 10:01:50,45.8,130.85,276.02,98,100,2.07
526,Gunnaur,IN,2022-05-01 10:01:51,28.25,78.4333,316.67,10,4,0.32
527,Sembakung,ID,2022-05-01 10:01:52,3.8167,117.25,299.44,93,75,1.55
528,Surt,LY,2022-05-01 10:01:55,31.2089,16.5887,301.61,29,99,5.59
529,Chauk,MM,2022-05-01 10:01:56,20.8833,94.8167,313.43,21,1,5.3
530,Ginir,ET,2022-05-01 09:57:11,7.1333,40.7,295.38,56,78,4.03
531,Pangkalanbuun,ID,2022-05-01 10:01:59,-2.6833,111.6167,300.65,83,97,1.91
532,Aykhal,RU,2022-05-01 10:02:00,66.0,111.5,267.35,77,100,5.96
533,Fare,PF,2022-05-01 10:02:02,-16.7,-151.0167,300.29,72,8,5.68
534,Lastoursville,GA,2022-05-01 10:02:05,-0.8143,12.7287,305.58,54,23,0.17
535,Bara,NG,2022-05-01 10:02:06,10.3744,10.7288,308.36,35,96,5.19
536,Abu Samrah,SY,2022-05-01 10:02:07,35.3029,37.1841,298.72,39,26,6.72
537,Lampazos De Naranjo,MX,2022-05-01 10:02:08,27.0167,-100.5167,296.87,86,20,3.79
538,Kununurra,AU,2022-05-01 10:02:10,-15.7667,128.7333,302.14,65,1,1.54
539,Cabra,ES,2022-05-01 10:02:11,37.4725,-4.4421,293.71,46,2,1.63
540,Ponca City,US,2022-05-01 10:02:12,36.707,-97.0856,283.12,76,0,2.73
541,Gao,ML,2022-05-01 10:02:13,16.6362,1.637,309.76,7,75,4.18
542,Bayan,CN,2022-05-01 10:02:16,46.0833,127.4,278.04,84,89,3.92
543,Shimoda,JP,2022-05-01 10:01:08,34.6667,138.95,287.1,91,100,1.87
544,De-Kastri,RU,2022-05-01 10:02:19,51.4667,140.7833,272.07,95,76,0.82
545,Juba,SS,2022-05-01 09:57:44,4.8517,31.5825,305.36,44,94,2.54
546,San Juan,AR,2022-05-01 10:02:23,-31.5375,-68.5364,284.33,47,0,2.48
547,Hanna,CA,2022-05-01 10:02:24,51.6334,-111.9018,279.31,68,100,4.5
548,Diego De Almagro,CL,2022-05-01 10:02:26,-26.3667,-70.05,285.31,63,98,1.03
549,Huallanca,PE,2022-05-01 10:02:27,-9.8993,-76.9417,277.27,95,95,0.29
550,Hervey Bay,AU,2022-05-01 10:02:28,-25.2986,152.8535,294.27,89,91,4.02
551,San Pedro Buenavista,MX,2022-05-01 10:03:29,16.0833,-93.1167,294.87,90,96,0.67
552,Kushima,JP,2022-05-01 10:03:02,31.4583,131.2333,289.92,77,100,1.17
553,Namibe,AO,2022-05-01 09:59:29,-15.1961,12.1522,299.5,78,40,2.57
554,Norman Wells,CA,2022-05-01 10:03:33,65.282,-126.8329,274.91,89,5,4.48
555,Conceicao Do Araguaia,BR,2022-05-01 10:03:34,-8.2578,-49.2647,294.96,83,29,1.03
556,Lagoa,PT,2022-05-01 10:03:37,39.05,-27.9833,288.89,83,2,0.9
557,Mopipi,BW,2022-05-01 10:03:38,-21.1833,24.8833,300.92,26,21,5.51
558,Smirnykh,RU,2022-05-01 10:03:39,49.75,142.8333,274.34,91,97,2.27
559,San Luis,AR,2022-05-01 10:03:40,-33.295,-66.3356,281.49,67,0,2.12
560,Termoli,IT,2022-05-01 10:03:43,41.9888,14.9895,295.25,49,58,4.39
561,Santa Rosa,PH,2022-05-01 09:59:00,14.3122,121.1114,306.14,68,77,6.03
562,Lokosovo,RU,2022-05-01 10:03:46,61.1333,74.8167,278.03,63,10,2.42
563,Oistins,BB,2022-05-01 10:03:47,13.0667,-59.5333,299.33,68,100,7.24
564,Asha,RU,2022-05-01 10:03:48,54.9973,57.2722,282.06,62,100,5.19
565,Mianyang,CN,2022-05-01 10:03:49,31.4593,104.7542,295.34,22,65,2.06
566,Yarmouth,US,2022-05-01 10:03:51,41.7057,-70.2286,280.91,88,0,1.54
567,Tabuk,PH,2022-05-01 10:03:52,17.4189,121.4443,302.07,58,97,0.77
568,Llata,PE,2022-05-01 10:03:53,-9.4167,-76.7833,279.91,92,70,0.97
569,Goure,NE,2022-05-01 10:03:54,13.9835,10.2704,311.49,21,74,4.79
570,Kjollefjord,NO,2022-05-01 10:03:56,70.9457,27.3465,273.18,58,99,2.23
571,Popondetta,PG,2022-05-01 10:03:57,-8.7537,148.2534,296.7,97,84,1.25
572,Pierre,US,2022-05-01 10:03:58,44.3683,-100.351,278.74,79,2,8.94
573,Waitati,NZ,2022-05-01 10:03:59,-45.75,170.5667,287.48,89,100,0.53
574,Xuddur,SO,2022-05-01 10:04:01,4.1213,43.8894,297.88,70,100,3.78
575,Guymon,US,2022-05-01 10:04:02,36.6828,-101.4816,285.15,47,0,4.63
576,Kautokeino,NO,2022-05-01 10:04:03,69.0125,23.0412,272.73,68,100,5.69
577,Maarianhamina,AX,2022-05-01 10:04:05,60.0973,19.9348,282.07,40,0,3.6
578,Japura,ID,2022-05-01 10:04:06,-0.3167,102.35,302.26,77,90,1.0
