City_ID,City,Country,Date,Lat,Lng,Max Temp,Humidity,Cloudiness,Wind Speed
0,Mar Del Plata,AR,2022-05-01 11:25:22,-38.0023,-57.5575,48.22,86,20,10.0
1,Port Alfred,ZA,2022-05-01 11:25:23,-33.5906,26.891,71.19,57,52,5.99
2,Khurai,IN,2022-05-01 11:25:24,24.0436,78.3319,106.75,11,29,10.47
3,Alakurtti,RU,2022-05-01 11:25:25,66.9672,30.3491,36.95,50,77,8.52
4,Bokoro,TD,2022-05-01 11:25:27,12.3807,17.0568,105.64,19,90,8.1
5,Khasan,RU,2022-05-01 11:25:28,42.4308,130.6434,46.0,61,90,4.47
6,Ushuaia,AR,2022-05-01 11:25:29,-54.8,-68.3,47.86,57,40,4.61
7,Albany,US,2022-05-01 11:25:30,42.6001,-73.9662,42.73,68,1,2.24
8,Mataura,NZ,2022-05-01 11:25:31,-46.1927,168.8643,52.48,99,96,2.19
9,Butaritari,KI,2022-05-01 11:25:32,3.0707,172.7902,80.96,81,93,12.06
10,Ribeira Grande,PT,2022-05-01 11:25:33,38.5167,-28.7,63.0,88,20,5.75
11,Tuy Hoa,VN,2022-05-01 11:25:33,13.0833,109.3,81.3,81,89,10.47
12,Calabozo,VE,2022-05-01 11:25:34,8.9242,-67.4293,74.12,90,64,0.94
13,Half Moon Bay,US,2022-05-01 11:25:35,37.4636,-122.4286,51.93,86,100,19.57
14,Hithadhoo,MV,2022-05-01 11:25:36,-0.6,73.0833,85.53,71,54,15.73
15,Severo-Kurilsk,RU,2022-05-01 11:25:37,50.6789,156.125,33.94,90,36,8.5
16,Muisne,EC,2022-05-01 11:25:39,0.6,-80.0333,75.83,86,100,5.88
17,Busselton,AU,2022-05-01 11:25:40,-33.65,115.3333,60.03,77,1,9.37
18,Ketou,BJ,2022-05-01 11:25:41,7.3633,2.5998,91.08,53,62,4.99
19,Vardo,NO,2022-05-01 11:25:42,70.3705,31.1107,29.3,61,100,9.82
20,Upernavik,GL,2022-05-01 11:25:46,72.7868,-56.1549,2.93,73,11,3.89
21,Kapaa,US,2022-05-01 11:25:47,22.0752,-159.319,73.38,91,40,20.71
22,Punta Arenas,CL,2022-05-01 11:25:48,-53.15,-70.9167,41.11,93,75,10.36
23,Port Lincoln,AU,2022-05-01 11:25:49,-34.7333,135.8667,60.64,86,13,8.86
24,Talnakh,RU,2022-05-01 11:25:50,69.4865,88.3972,25.21,84,96,10.0
25,Hobart,AU,2022-05-01 11:21:00,-42.8794,147.3294,62.46,69,75,11.5
26,Elizabeth City,US,2022-05-01 11:25:51,36.2946,-76.2511,59.02,90,40,4.61
27,Bambous Virieux,MU,2022-05-01 11:25:52,-20.3428,57.7575,82.22,74,75,8.05
28,Ngama,TD,2022-05-01 11:25:53,11.7833,17.1667,104.72,19,48,7.0
29,Nizhneangarsk,RU,2022-05-01 11:25:54,55.7833,109.55,35.67,100,100,3.76
30,Kapoeta,SS,2022-05-01 11:25:55,4.7717,33.5903,89.85,41,100,14.67
31,Takoradi,GH,2022-05-01 11:24:39,4.8845,-1.7554,85.17,69,89,6.8
32,Hasaki,JP,2022-05-01 11:25:57,35.7333,140.8333,55.8,89,100,11.32
33,Thompson,CA,2022-05-01 11:25:58,55.7435,-97.8558,23.16,86,100,12.66
34,Luangwa,ZM,2022-05-01 11:25:59,-15.6167,30.4167,87.37,34,0,8.19
35,Torbay,CA,2022-05-01 11:26:00,47.6666,-52.7314,44.76,94,100,11.5
36,Cidreira,BR,2022-05-01 11:26:01,-30.1811,-50.2056,63.5,93,100,5.06
37,Kavaratti,IN,2022-05-01 11:26:02,10.5669,72.642,85.93,70,82,14.2
38,Hualmay,PE,2022-05-01 11:26:03,-11.0964,-77.6139,64.06,91,19,6.51
39,Qaanaaq,GL,2022-05-01 11:26:04,77.484,-69.3632,6.04,65,27,9.35
40,Manggar,ID,2022-05-01 11:26:05,-2.8833,108.2667,83.79,74,99,5.53
41,Porterville,US,2022-05-01 11:26:06,36.0652,-119.0168,56.59,71,0,3.11
42,Huadian,CN,2022-05-01 11:26:07,42.9633,126.7478,42.75,60,96,5.35
43,Klaksvik,FO,2022-05-01 11:26:08,62.2266,-6.589,49.12,79,80,12.68
44,Bahir Dar,ET,2022-05-01 11:26:09,11.5936,37.3908,86.77,16,44,8.46
45,Ixtapa,MX,2022-05-01 11:26:10,20.7,-105.2,70.23,62,98,3.22
46,Lavrentiya,RU,2022-05-01 11:27:11,65.5833,-171.0,12.45,91,48,10.22
47,Lorengau,PG,2022-05-01 11:27:12,-2.0226,147.2712,81.57,76,74,4.99
48,Rikitea,PF,2022-05-01 11:27:13,-23.1203,-134.9692,76.44,74,87,11.7
49,Tomari,RU,2022-05-01 11:27:14,47.7658,142.0683,37.69,77,100,7.87
50,Road Town,VG,2022-05-01 11:26:00,18.4167,-64.6167,78.89,100,20,8.05
51,Mayumba,GA,2022-05-01 11:27:15,-3.432,10.6554,84.25,69,32,5.12
52,Tuktoyaktuk,CA,2022-05-01 11:27:16,69.4541,-133.0374,33.01,90,100,12.19
53,Saurimo,AO,2022-05-01 11:27:17,-9.6608,20.3916,80.04,39,77,8.21
54,Aykhal,RU,2022-05-01 11:26:40,66.0,111.5,19.87,80,100,10.16
55,Ratnagiri,IN,2022-05-01 11:27:19,16.9833,73.3,88.88,57,11,11.43
56,Boma,GH,2022-05-01 11:27:20,7.0805,-2.1697,92.3,47,58,3.53
57,Broken Hill,AU,2022-05-01 11:27:05,-31.95,141.4333,55.11,76,2,5.75
58,Yellowknife,CA,2022-05-01 11:26:34,62.456,-114.3525,25.32,68,0,8.05
59,Malazgirt,TR,2022-05-01 11:27:23,39.1427,42.5401,61.86,54,90,6.24
60,Sadiqabad,PK,2022-05-01 11:27:24,28.3062,70.1307,116.76,5,1,11.72
61,Skelleftea,SE,2022-05-01 11:25:39,64.7507,20.9528,46.76,34,0,10.36
62,Katsuura,JP,2022-05-01 11:26:22,35.1333,140.3,59.02,95,100,9.53
63,Cape Town,ZA,2022-05-01 11:25:26,-33.9258,18.4232,76.12,59,0,17.27
64,Xining,CN,2022-05-01 11:27:28,36.6167,101.7667,46.62,40,56,6.89
65,Akhmim,EG,2022-05-01 11:27:30,26.5622,31.745,95.94,8,2,17.76
66,Sao Filipe,CV,2022-05-01 11:27:31,14.8961,-24.4956,74.1,70,0,8.03
67,Juli,PE,2022-05-01 11:27:32,-16.2167,-69.45,35.87,83,2,1.77
68,Tuatapere,NZ,2022-05-01 11:27:33,-46.1333,167.6833,50.38,96,39,4.05
69,Pacatuba,BR,2022-05-01 11:27:34,-3.9842,-38.6203,81.46,83,32,6.78
70,Ulaanbaatar,MN,2022-05-01 11:24:09,47.9077,106.8832,68.13,12,20,6.71
71,Atasu,KZ,2022-05-01 11:27:37,48.6814,71.6433,81.28,22,100,16.51
72,Nichinan,JP,2022-05-01 11:23:19,31.6,131.3667,64.08,77,100,1.28
73,Guerrero Negro,MX,2022-05-01 11:27:38,27.9769,-114.0611,57.83,91,100,8.66
74,Labuhan,ID,2022-05-01 11:27:39,-6.8844,112.2051,82.56,82,72,10.11
75,Vila Velha,BR,2022-05-01 11:27:40,-20.3297,-40.2925,76.95,79,20,6.91
76,Luanda,AO,2022-05-01 11:25:11,-8.8368,13.2343,84.2,70,20,8.05
77,Biltine,TD,2022-05-01 11:27:42,14.5333,20.9167,107.85,6,79,10.54
78,Luderitz,NA,2022-05-01 11:27:43,-26.6481,15.1594,81.72,33,0,4.32
79,East Angus,CA,2022-05-01 11:27:44,45.4834,-71.6658,34.05,89,20,2.3
80,Kodiak,US,2022-05-01 11:26:16,57.79,-152.4072,42.31,81,100,16.11
81,Khatanga,RU,2022-05-01 11:27:46,71.9667,102.5,25.34,82,38,12.48
82,Airai,TL,2022-05-01 11:27:47,-8.9266,125.4092,61.16,92,73,3.22
83,Tahe,CN,2022-05-01 11:27:48,52.3333,124.7333,40.24,22,20,2.01
84,Nouadhibou,MR,2022-05-01 11:26:48,20.931,-17.0347,78.78,44,74,20.71
85,Dunedin,NZ,2022-05-01 11:27:50,-45.8742,170.5036,58.8,91,100,4.0
86,Ponta Do Sol,PT,2022-05-01 11:27:51,32.6667,-17.1,72.23,52,0,1.54
87,Saint-Philippe,RE,2022-05-01 11:27:52,-21.3585,55.7679,83.79,80,30,9.37
88,Lundazi,ZM,2022-05-01 11:27:53,-12.2929,33.1782,76.82,50,22,7.02
89,Gbarnga,LR,2022-05-01 11:27:54,6.9956,-9.4722,88.97,57,98,1.07
90,Fuxin,CN,2022-05-01 11:27:52,42.0156,121.6589,55.06,18,28,7.25
91,Grindavik,IS,2022-05-01 11:27:55,63.8424,-22.4338,45.07,81,75,9.22
92,Hermanus,ZA,2022-05-01 11:27:56,-34.4187,19.2345,73.8,58,4,6.38
93,Kondinskoye,RU,2022-05-01 11:28:57,59.6481,67.41,47.93,34,75,8.39
94,Dikson,RU,2022-05-01 11:28:58,73.5069,80.5464,18.27,83,98,15.17
95,Puerto Ayora,EC,2022-05-01 11:28:59,-0.7393,-90.3518,70.95,95,50,4.34
96,La Rioja,ES,2022-05-01 11:25:10,42.25,-2.5,60.58,38,7,8.14
97,Maracacume,BR,2022-05-01 11:29:01,-2.0428,-45.9592,76.01,92,75,1.95
98,Victor Harbor,AU,2022-05-01 11:27:36,-35.5667,138.6167,62.01,85,40,6.69
99,Vaini,TO,2022-05-01 11:29:03,-21.2,-175.2,77.16,100,20,4.61
100,Sisimiut,GL,2022-05-01 11:29:04,66.9395,-53.6735,23.09,57,3,4.92
101,Lata,PT,2022-05-01 11:29:05,40.1629,-8.3327,63.07,53,68,7.02
102,Bluff,NZ,2022-05-01 11:29:06,-46.6,168.3333,52.81,92,49,7.74
103,Kupino,RU,2022-05-01 11:28:50,54.3663,77.2981,63.39,44,100,12.77
104,Sigli,ID,2022-05-01 11:27:39,5.3848,95.9609,83.3,79,100,4.29
105,Bida,NG,2022-05-01 11:29:08,9.0833,6.0167,97.7,37,79,6.06
106,San Patricio,US,2022-05-01 11:29:09,28.017,-97.5169,79.9,96,26,6.38
107,Athabasca,CA,2022-05-01 11:29:10,54.7169,-113.2854,32.41,82,100,7.85
108,Vila,PT,2022-05-01 11:29:11,42.0304,-8.1588,49.08,39,13,4.5
109,Nikolskoye,RU,2022-05-01 11:29:13,59.7035,30.7861,49.78,52,86,9.1
110,Tautira,PF,2022-05-01 11:29:14,-17.7333,-149.15,79.7,74,26,9.53
111,Wad Rawah,SD,2022-05-01 11:29:14,15.1603,33.1397,109.31,8,6,19.84
112,Kahului,US,2022-05-01 11:29:15,20.8947,-156.47,73.85,87,75,14.97
113,Carnarvon,AU,2022-05-01 11:29:16,-24.8667,113.6333,73.47,78,1,9.22
114,Kaitangata,NZ,2022-05-01 11:29:17,-46.2817,169.8464,53.53,96,100,2.42
115,Georgetown,MY,2022-05-01 11:27:16,5.4112,100.3354,87.75,75,20,3.44
116,Gizo,SB,2022-05-01 11:29:19,-8.103,156.8419,82.6,73,96,2.37
117,Saint-Joseph,RE,2022-05-01 11:29:20,-21.3667,55.6167,82.78,79,32,5.19
118,Castro,BR,2022-05-01 11:27:00,-24.7911,-50.0119,60.22,91,7,2.55
119,Ak-Dovurak,RU,2022-05-01 11:29:22,51.1833,90.6,75.0,10,52,1.01
120,Vuktyl,RU,2022-05-01 11:29:23,63.8567,57.3094,35.17,49,74,6.91
121,Gigmoto,PH,2022-05-01 11:28:16,13.7796,124.39,79.72,81,87,6.06
122,New Norfolk,AU,2022-05-01 11:29:24,-42.7826,147.0587,62.1,72,99,3.0
123,Narsaq,GL,2022-05-01 11:29:25,60.9167,-46.05,41.22,84,87,4.07
124,Puerto Madryn,AR,2022-05-01 11:26:55,-42.7692,-65.0385,43.66,77,10,9.13
125,Komsomolskiy,UZ,2022-05-01 11:29:27,40.4272,71.7189,88.52,20,96,4.61
126,Rio Grande,BR,2022-05-01 11:29:28,-32.035,-52.0986,57.31,81,98,5.55
127,Aden,YE,2022-05-01 11:29:29,12.7794,45.0367,86.04,67,48,10.65
128,Grand Gaube,MU,2022-05-01 11:29:30,-20.0064,57.6608,82.38,68,8,7.0
129,Sakakah,SA,2022-05-01 11:29:31,29.9697,40.2064,87.37,17,0,21.68
130,Alta Floresta,BR,2022-05-01 11:29:33,-9.8756,-56.0861,72.59,88,99,1.7
131,Saskylakh,RU,2022-05-01 11:27:19,71.9167,114.0833,15.69,91,99,10.47
132,Hilo,US,2022-05-01 11:26:38,19.7297,-155.09,74.28,91,100,8.05
133,Kruisfontein,ZA,2022-05-01 11:29:36,-34.0033,24.7314,74.88,41,54,11.54
134,Ipixuna,BR,2022-05-01 11:29:37,-1.7625,-48.8043,75.07,95,81,1.36
135,Mount Gambier,AU,2022-05-01 11:28:34,-37.8333,140.7667,57.11,100,75,9.22
136,Tasiilaq,GL,2022-05-01 11:29:39,65.6145,-37.6368,37.56,58,69,7.05
137,Arcachon,FR,2022-05-01 11:29:40,44.5875,-1.0519,71.42,72,78,10.36
138,Souillac,MU,2022-05-01 11:29:41,-20.5167,57.5167,80.98,74,75,8.05
139,Port Elizabeth,ZA,2022-05-01 11:29:42,-33.918,25.5701,77.09,48,0,17.27
140,Kavieng,PG,2022-05-01 11:29:43,-2.5744,150.7967,82.76,72,27,5.32
141,Sehithwa,BW,2022-05-01 11:29:44,-20.4667,22.7167,86.76,20,4,5.91
142,Hirara,JP,2022-05-01 11:28:11,24.8,125.2833,68.27,94,75,17.27
143,Broome,US,2022-05-01 11:30:45,42.2506,-75.833,43.36,70,0,3.44
144,Jamestown,US,2022-05-01 11:27:19,42.097,-79.2353,51.39,34,100,9.22
145,Jinchang,CN,2022-05-01 11:30:47,38.4953,102.1739,56.84,15,12,9.64
146,Hokitika,NZ,2022-05-01 11:30:48,-42.7167,170.9667,59.18,90,100,0.63
147,Touros,BR,2022-05-01 11:30:49,-5.1989,-35.4608,84.92,68,94,16.49
148,Lebu,CL,2022-05-01 11:27:29,-37.6167,-73.65,49.03,84,79,13.2
149,Victoria,HK,2022-05-01 11:28:40,22.2855,114.1577,66.33,92,100,11.99
150,Humaita,BR,2022-05-01 11:27:21,-7.5061,-63.0208,73.44,96,54,1.19
151,Erode,IN,2022-05-01 11:27:16,11.35,77.7333,104.52,20,20,3.38
152,Bethel,US,2022-05-01 11:30:55,41.3712,-73.414,49.95,68,0,0.0
153,Soyo,AO,2022-05-01 11:30:57,-6.1349,12.3689,82.47,78,53,8.39
154,Solnechnyy,RU,2022-05-01 11:30:58,50.7214,136.6319,29.59,94,83,4.68
155,Saint-Pierre,RE,2022-05-01 11:30:59,-21.3393,55.4781,83.88,69,0,8.05
156,Messina,IT,2022-05-01 11:31:00,38.1933,15.5497,65.91,71,40,8.05
157,Buala,SB,2022-05-01 11:31:02,-8.145,159.5921,80.38,80,100,4.25
158,Barrow,US,2022-05-01 11:31:03,71.2906,-156.7887,21.22,93,100,11.5
159,Arraial Do Cabo,BR,2022-05-01 11:26:44,-22.9661,-42.0278,75.06,94,0,4.61
160,Nanyamba,TZ,2022-05-01 11:31:04,-10.6833,39.8333,82.4,56,2,9.06
161,Ancud,CL,2022-05-01 11:27:08,-41.8697,-73.8203,49.57,91,100,2.64
162,Codrington,AU,2022-05-01 11:31:06,-38.2667,141.9667,58.75,80,90,10.09
163,Nishihara,JP,2022-05-01 11:31:07,26.1842,127.7558,69.46,78,100,16.11
164,Haines Junction,CA,2022-05-01 11:31:09,60.7522,-137.5108,30.15,74,100,1.14
165,Progreso,MX,2022-05-01 11:31:10,21.2833,-89.6667,73.51,91,2,9.69
166,Acajutla,SV,2022-05-01 11:27:31,13.5928,-89.8275,78.91,79,100,4.9
167,Saint George,US,2022-05-01 11:31:11,37.1041,-113.5841,63.95,26,0,9.22
168,Husavik,IS,2022-05-01 11:31:12,66.0449,-17.3389,29.62,79,100,15.21
169,Jarinu,BR,2022-05-01 11:27:19,-23.1014,-46.7283,67.35,75,62,3.74
170,Elliot Lake,CA,2022-05-01 11:31:14,46.3834,-82.6331,43.03,60,99,15.03
171,Bengkulu,ID,2022-05-01 11:27:36,-3.8004,102.2655,80.94,78,95,4.38
172,Pochutla,MX,2022-05-01 11:31:16,15.7432,-96.4661,76.82,70,99,2.68
173,College,US,2022-05-01 11:31:17,64.8569,-147.8028,37.38,65,40,9.22
174,Kachiry,KZ,2022-05-01 11:31:18,53.0675,76.1036,74.14,34,100,8.05
175,Hambantota,LK,2022-05-01 11:31:19,6.1241,81.1185,86.34,84,40,9.22
176,Norman Wells,CA,2022-05-01 11:31:20,65.282,-126.8329,39.24,52,20,8.05
177,Leningradskiy,RU,2022-05-01 11:31:21,69.3833,178.4167,-1.68,95,57,5.08
178,Narasannapeta,IN,2022-05-01 11:27:49,18.4167,84.05,87.8,66,29,10.38
179,Nome,US,2022-05-01 11:31:24,64.5011,-165.4064,39.27,66,0,18.41
180,Sarangani,PH,2022-05-01 11:31:25,5.4033,125.4636,82.62,74,100,10.98
181,Mercedes,AR,2022-05-01 11:31:26,-34.6515,-59.4307,47.86,56,1,5.88
182,Cayenne,GF,2022-05-01 11:31:29,4.9333,-52.3333,82.09,1,75,8.01
183,Portel,BR,2022-05-01 11:31:30,-1.9356,-50.8211,74.71,97,99,2.89
184,Hay River,CA,2022-05-01 11:31:31,60.8156,-115.7999,22.98,93,20,3.44
185,Pundaguitan,PH,2022-05-01 11:31:32,6.3711,126.1689,81.43,79,99,9.06
186,Necochea,AR,2022-05-01 11:27:00,-38.5473,-58.7368,53.19,70,28,13.2
187,Aklavik,CA,2022-05-01 11:31:33,68.2191,-135.0107,31.03,95,100,7.34
188,Kijang,KR,2022-05-01 11:32:34,35.2442,129.2139,58.73,56,22,9.64
189,Yamada,JP,2022-05-01 11:32:35,39.4667,141.95,46.87,98,100,2.98
190,Mareeba,AU,2022-05-01 11:32:36,-17.0,145.4333,69.44,92,92,2.26
191,Natal,BR,2022-05-01 11:32:37,-5.795,-35.2094,82.62,78,40,11.5
192,Semnan,IR,2022-05-01 11:32:38,35.5729,53.3971,71.44,49,75,6.91
193,Shache,CN,2022-05-01 11:32:39,38.4167,77.2406,77.83,9,0,8.84
194,Toora-Khem,RU,2022-05-01 11:32:40,52.4675,96.11,63.64,33,88,0.85
195,San Ignacio,BZ,2022-05-01 11:32:41,17.1561,-89.0714,73.54,100,0,0.0
196,Panaba,MX,2022-05-01 11:32:42,21.2833,-88.2667,72.16,91,1,6.53
197,Atlantic Beach,US,2022-05-01 11:32:43,30.3344,-81.3987,68.02,95,0,3.44
198,Ilulissat,GL,2022-05-01 11:32:45,69.2167,-51.1,21.22,42,0,0.0
199,Santa Maria,BR,2022-05-01 11:32:46,-29.6842,-53.8069,60.1,94,75,3.44
200,Sept-Iles,CA,2022-05-01 11:32:47,50.2001,-66.3821,39.06,66,75,13.8
201,Presidente Medici,BR,2022-05-01 11:32:48,-11.1753,-61.9014,74.66,90,98,1.57
202,Porto Santo,PT,2022-05-01 11:32:49,33.072,-16.3415,70.18,68,20,13.8
203,Cockburn Town,TC,2022-05-01 11:32:51,21.4612,-71.1419,76.96,69,40,16.11
204,Vila Franca Do Campo,PT,2022-05-01 11:32:52,37.7167,-25.4333,69.19,66,0,1.03
205,Port Hedland,AU,2022-05-01 11:32:53,-20.3167,118.5667,82.45,47,96,8.05
206,Bintulu,MY,2022-05-01 11:29:16,3.1667,113.0333,84.61,79,20,2.3
207,Singaraja,ID,2022-05-01 11:32:54,-8.112,115.0882,82.18,81,87,7.05
208,Redmond,US,2022-05-01 11:32:55,47.674,-122.1215,49.33,88,16,1.99
209,Raga,SS,2022-05-01 11:32:56,8.4596,25.678,105.33,14,100,5.06
210,Boralday,KZ,2022-05-01 11:32:57,43.3578,76.8594,84.06,23,40,6.71
211,Korla,CN,2022-05-01 11:32:58,41.7597,86.1469,70.52,15,88,11.43
212,Saldanha,ZA,2022-05-01 11:32:59,-33.0117,17.9442,78.85,67,3,12.66
213,Cabo San Lucas,MX,2022-05-01 11:33:00,22.8909,-109.9124,71.51,58,25,11.34
214,Salalah,OM,2022-05-01 11:33:01,17.0151,54.0924,91.49,70,20,13.8
215,Lompoc,US,2022-05-01 11:33:02,34.6391,-120.4579,52.79,85,100,31.0
216,Panzos,GT,2022-05-01 11:33:03,15.4,-89.6667,74.19,98,94,1.1
217,Zhezkazgan,KZ,2022-05-01 11:33:04,47.8043,67.7144,80.58,21,0,15.66
218,Rocha,UY,2022-05-01 11:33:05,-34.4833,-54.3333,54.36,81,48,7.52
219,Safaga,EG,2022-05-01 11:33:06,26.7292,33.9365,84.61,36,0,22.62
220,Birjand,IR,2022-05-01 11:33:07,32.8663,59.2211,84.67,20,40,21.85
221,Plouzane,FR,2022-05-01 11:33:08,48.3833,-4.6167,62.92,59,0,4.61
222,Ibirataia,BR,2022-05-01 11:33:09,-14.0669,-39.6406,75.22,82,88,2.73
223,Aloleng,PH,2022-05-01 11:33:10,16.1307,119.7824,82.47,78,77,6.33
224,Tiksi,RU,2022-05-01 11:33:11,71.6872,128.8694,22.82,94,89,9.28
225,Miri,MY,2022-05-01 11:28:43,4.4148,114.0089,84.34,84,40,5.75
226,Kalmunai,LK,2022-05-01 11:33:12,7.4167,81.8167,84.42,76,98,10.78
227,Avera,US,2022-05-01 11:33:13,33.194,-82.5271,62.65,86,34,7.05
228,Olafsvik,IS,2022-05-01 11:33:16,64.8945,-23.7142,38.75,53,72,10.65
229,Kamiiso,JP,2022-05-01 11:33:17,41.8167,140.65,46.78,87,75,4.61
230,Saint-Augustin,CA,2022-05-01 11:33:18,51.226,-58.6502,34.97,83,100,24.2
231,Beringovskiy,RU,2022-05-01 11:33:18,63.05,179.3167,17.24,95,99,12.62
232,Qeshm,IR,2022-05-01 11:33:19,26.9581,56.2719,87.67,51,0,22.97
233,Xinye,CN,2022-05-01 11:33:20,32.5186,112.3522,61.84,46,97,6.02
234,La Ronge,CA,2022-05-01 11:33:21,55.1001,-105.2842,30.45,80,100,9.22
235,Provideniya,RU,2022-05-01 11:34:22,64.3833,-173.3,23.67,83,92,11.3
236,Maxixe,MZ,2022-05-01 11:34:23,-23.8597,35.3472,78.62,73,40,9.22
237,General Pico,AR,2022-05-01 11:34:24,-35.6566,-63.7568,46.26,56,3,7.43
238,Campobasso,IT,2022-05-01 11:34:25,41.6333,14.5833,69.82,42,85,6.67
239,Bredasdorp,ZA,2022-05-01 11:34:26,-34.5322,20.0403,72.63,40,3,5.61
240,Praia,CV,2022-05-01 11:34:27,14.9215,-23.5087,79.34,53,20,16.11
241,Flinders,AU,2022-05-01 11:34:28,-34.5833,150.8552,61.38,81,3,3.0
242,Inhambane,MZ,2022-05-01 11:34:29,-23.865,35.3833,78.78,73,40,9.22
243,Mahebourg,MU,2022-05-01 11:34:30,-20.4081,57.7,82.26,74,75,8.05
244,San Juan,AR,2022-05-01 11:34:31,-31.5375,-68.5364,54.45,44,0,4.99
245,Maasin,PH,2022-05-01 11:34:32,10.1336,124.8447,80.91,81,84,9.37
246,Shagamu,NG,2022-05-01 11:34:33,6.8432,3.6478,91.18,50,89,6.04
247,Crotone,IT,2022-05-01 11:34:35,39.0851,17.1178,70.2,37,0,9.22
248,Yerbogachen,RU,2022-05-01 11:34:36,61.2767,108.0108,29.52,91,100,8.39
249,Sur,OM,2022-05-01 11:34:37,22.5667,59.5289,90.07,47,0,9.73
250,Nhamunda,BR,2022-05-01 11:34:38,-2.1861,-56.7131,77.14,92,75,2.68
251,Teguldet,RU,2022-05-01 11:34:39,57.3064,88.1667,43.16,57,100,8.32
252,Kununurra,AU,2022-05-01 11:34:40,-15.7667,128.7333,78.78,78,3,0.0
253,Eyl,SO,2022-05-01 11:34:41,7.9803,49.8164,90.27,57,91,16.62
254,Katobu,ID,2022-05-01 11:34:42,-4.9408,122.5276,76.57,89,83,5.08
255,Lagoa,PT,2022-05-01 11:34:43,39.05,-27.9833,60.69,80,4,0.85
256,Bodden Town,KY,2022-05-01 11:34:46,19.2833,-81.25,79.93,81,40,8.05
257,Atuona,PF,2022-05-01 11:34:47,-9.8,-139.0333,78.76,74,12,14.52
258,Antofagasta,CL,2022-05-01 11:32:27,-23.65,-70.4,60.08,81,59,2.19
259,Jalu,LY,2022-05-01 11:34:49,29.0331,21.5482,99.99,7,97,21.63
260,Batemans Bay,AU,2022-05-01 11:34:51,-35.7167,150.1833,59.09,86,27,3.69
261,Kuito,AO,2022-05-01 11:34:52,-12.3833,16.9333,77.14,65,0,10.36
262,Avarua,CK,2022-05-01 11:34:53,-21.2078,-159.775,73.45,100,99,2.3
263,Acapulco,MX,2022-05-01 11:34:55,16.8634,-99.8901,71.42,88,75,3.44
264,Tandlianwala,PK,2022-05-01 11:34:57,31.0333,73.1333,112.48,7,0,7.14
265,Ostrovnoy,RU,2022-05-01 11:34:58,68.0531,39.5131,30.07,80,78,16.15
266,Cherskiy,RU,2022-05-01 11:34:59,68.75,161.3,11.61,92,51,6.89
267,Faanui,PF,2022-05-01 11:35:00,-16.4833,-151.75,80.74,73,45,11.27
268,Berlevag,NO,2022-05-01 11:35:01,70.8578,29.0864,28.2,59,100,6.29
269,Zhob,PK,2022-05-01 11:35:02,31.3411,69.4481,94.96,5,20,14.23
270,Chokurdakh,RU,2022-05-01 11:30:34,70.6333,147.9167,25.23,93,51,9.04
271,Samoded,RU,2022-05-01 11:35:03,63.6083,40.5111,37.87,59,100,7.87
272,Jatiroto,ID,2022-05-01 11:35:04,-7.8833,111.1167,76.35,90,87,2.57
273,Lyss,CH,2022-05-01 11:35:05,47.0741,7.3066,63.32,60,20,11.5
274,Kudahuvadhoo,MV,2022-05-01 11:35:06,2.6708,72.8944,85.95,74,86,18.68
275,Alofi,NU,2022-05-01 11:35:07,-19.0595,-169.9187,76.89,94,100,3.44
276,North Myrtle Beach,US,2022-05-01 11:35:08,33.816,-78.68,68.02,98,0,0.0
277,Eenhana,NA,2022-05-01 11:35:09,-17.4667,16.3333,85.75,24,20,7.09
278,Tukrah,LY,2022-05-01 11:35:10,32.5341,20.5791,84.38,28,100,15.73
279,Irbit,RU,2022-05-01 11:36:11,57.6705,63.071,51.04,48,100,8.79
280,Vao,NC,2022-05-01 11:36:12,-22.6667,167.4833,75.61,83,66,22.68
281,Petropavlovsk-Kamchatskiy,RU,2022-05-01 11:36:13,53.0452,158.6483,37.99,60,75,2.24
282,Bloomsburg,US,2022-05-01 11:36:14,41.0037,-76.4549,51.08,64,94,3.33
283,Khromtau,KZ,2022-05-01 11:36:17,50.2503,58.4347,56.55,58,97,9.44
284,Chuy,UY,2022-05-01 11:36:18,-33.6971,-53.4616,55.54,82,36,6.69
285,Kilindoni,TZ,2022-05-01 11:36:19,-7.9139,39.6668,81.55,73,65,19.04
286,Yulara,AU,2022-05-01 11:36:20,-25.2406,130.9889,66.04,52,100,4.61
287,Jutai,BR,2022-05-01 11:36:21,-5.1833,-68.9,74.39,96,99,1.43
288,Ashqelon,IL,2022-05-01 11:36:22,31.6693,34.5715,77.79,70,4,12.66
289,Denpasar,ID,2022-05-01 11:31:31,-8.65,115.2167,83.86,83,20,10.36
290,Makushino,RU,2022-05-01 11:36:24,55.2103,67.2442,37.62,95,100,6.64
291,Iqaluit,CA,2022-05-01 11:36:25,63.7506,-68.5145,17.33,78,100,2.3
292,Marquette,US,2022-05-01 11:36:26,46.5333,-87.6335,41.34,92,100,10.74
293,Port Macquarie,AU,2022-05-01 11:35:41,-31.4333,152.9167,62.89,77,59,5.61
294,Yumen,CN,2022-05-01 11:36:27,40.2833,97.2,60.4,9,0,8.93
295,Graaff-Reinet,ZA,2022-05-01 11:36:28,-32.2522,24.5308,71.92,39,19,4.03
296,Axim,GH,2022-05-01 11:36:29,4.8699,-2.2405,84.49,71,92,7.85
297,Bathsheba,BB,2022-05-01 11:36:30,13.2167,-59.5167,81.21,78,20,18.41
298,Pevek,RU,2022-05-01 11:36:31,69.7008,170.3133,-2.67,98,35,6.26
299,Kirovskiy,RU,2022-05-01 11:36:32,45.0917,133.5136,40.53,93,100,2.48
300,Pathein,MM,2022-05-01 11:36:33,16.7833,94.7333,85.24,61,5,11.39
301,Danjiangkou,CN,2022-05-01 11:36:34,32.5428,111.5086,63.7,40,100,5.48
302,Malanje,AO,2022-05-01 11:36:35,-9.5402,16.341,77.38,88,40,10.36
303,Anadyr,RU,2022-05-01 11:36:36,64.75,177.4833,19.9,86,0,2.24
304,Genhe,CN,2022-05-01 11:36:37,50.7833,121.5167,39.25,35,100,2.91
305,Cabedelo,BR,2022-05-01 11:36:38,-6.9811,-34.8339,79.47,73,51,15.77
306,Allapalli,IN,2022-05-01 11:36:40,19.4167,80.0667,109.51,9,8,3.53
307,Opuwo,NA,2022-05-01 11:36:42,-18.0607,13.84,84.88,27,24,10.33
308,Shinpokh,PK,2022-05-01 11:36:44,34.3292,71.1782,105.21,12,6,6.69
309,Sao Jose Da Coroa Grande,BR,2022-05-01 11:36:45,-8.8978,-35.1478,80.65,78,55,11.63
310,Pisco,PE,2022-05-01 11:36:46,-13.7,-76.2167,63.01,82,0,3.44
311,Puerto Escondido,MX,2022-05-01 11:36:48,15.85,-97.0667,77.83,73,0,6.91
312,Chaozhou,CN,2022-05-01 11:36:49,23.6651,116.6379,66.06,93,100,4.54
313,Kanker,IN,2022-05-01 11:36:50,20.2719,81.4931,105.67,10,74,12.41
314,Kasama,ZM,2022-05-01 11:36:51,-10.2129,31.1808,75.78,54,73,6.67
315,Panacan,PH,2022-05-01 11:36:52,9.2463,118.4082,81.37,81,95,4.72
316,Aquidauana,BR,2022-05-01 11:36:53,-20.4711,-55.7872,79.48,49,42,2.33
317,Lucea,JM,2022-05-01 11:36:54,18.451,-78.1736,76.86,78,45,14.23
318,Okha,RU,2022-05-01 11:36:55,53.5739,142.9478,26.26,97,70,4.81
319,Shubarshi,KZ,2022-05-01 11:36:56,48.5872,57.1869,63.82,56,81,14.58
320,Gat,IL,2022-05-01 11:36:57,31.61,34.7642,76.78,23,3,15.32
321,Fairbanks,US,2022-05-01 11:36:59,64.8378,-147.7164,37.4,66,0,9.22
322,Kurilsk,RU,2022-05-01 11:38:00,45.2333,147.8833,35.55,79,100,9.69
323,Benicarlo,ES,2022-05-01 11:38:01,40.4165,0.4271,76.89,60,41,8.16
324,Sao Joao Da Barra,BR,2022-05-01 11:38:02,-21.6403,-41.0511,75.29,80,49,7.29
325,Ekibastuz,KZ,2022-05-01 11:38:03,51.6667,75.3667,82.24,26,95,9.42
326,Malm,NO,2022-05-01 11:38:04,64.0721,11.2172,44.78,75,100,12.97
327,Kirakira,SB,2022-05-01 11:38:05,-10.4544,161.9205,80.13,81,100,3.18
328,Coquimbo,CL,2022-05-01 11:38:06,-29.9533,-71.3436,49.73,100,100,4.61
329,Dubai,AE,2022-05-01 11:37:53,25.2582,55.3047,89.89,40,0,17.27
330,Shalazhi,RU,2022-05-01 11:38:07,43.0978,45.3608,67.35,80,90,3.74
331,Gilgit,PK,2022-05-01 11:38:08,35.9221,74.3087,80.46,25,10,1.7
332,Araouane,ML,2022-05-01 11:38:09,18.9048,-3.5265,94.77,11,37,14.45
333,Truro,GB,2022-05-01 11:38:10,50.2653,-5.0544,52.88,87,75,6.91
334,Padang,ID,2022-05-01 11:33:18,-0.9492,100.3543,82.45,87,84,3.44
335,Ambulu,ID,2022-05-01 11:38:12,-8.345,113.6058,79.02,89,98,4.68
336,Bajil,YE,2022-05-01 11:38:13,15.0584,43.2851,97.95,34,86,14.47
337,Boende,CD,2022-05-01 11:38:14,-0.2167,20.8667,84.72,63,100,3.0
338,Itarema,BR,2022-05-01 11:38:15,-2.9248,-39.9167,80.98,77,79,13.13
339,Newport,GB,2022-05-01 11:38:16,51.5877,-2.9984,52.45,89,100,9.01
340,Abbeville,FR,2022-05-01 11:38:17,50.1,1.8333,61.5,60,100,4.85
341,Constitucion,CL,2022-05-01 11:38:18,-35.3333,-72.4167,48.54,72,0,5.12
342,General Roca,AR,2022-05-01 11:38:19,-39.0333,-67.5833,47.75,65,43,7.07
343,Falam,MM,2022-05-01 11:38:20,22.9167,93.6833,75.54,38,57,4.0
344,Balabac,PH,2022-05-01 11:38:21,7.9868,117.0645,82.02,81,97,8.59
345,Meulaboh,ID,2022-05-01 11:38:22,4.1363,96.1285,80.01,82,100,3.33
346,Bongaree,AU,2022-05-01 11:38:23,-27.0797,153.1586,68.05,82,89,15.77
347,Corbu,RO,2022-05-01 11:38:24,44.3833,28.65,67.14,40,40,12.66
348,Shitanjing,CN,2022-05-01 11:38:25,39.2342,106.3439,56.32,12,5,8.1
349,Loukhi,RU,2022-05-01 11:38:26,66.0764,33.0381,37.44,55,38,8.48
350,Novo Oriente,BR,2022-05-01 11:38:27,-5.5344,-40.7742,81.5,54,38,8.77
351,Mangrol,IN,2022-05-01 11:38:28,21.1167,70.1167,87.8,73,0,14.16
352,Nagato,JP,2022-05-01 11:38:29,34.3833,131.2,56.19,60,84,3.29
353,Goundam,ML,2022-05-01 11:38:30,16.4145,-3.6708,101.37,6,24,7.7
354,Lisa,RO,2022-05-01 11:38:31,43.8,25.1333,66.9,38,39,10.8
355,Kushmurun,KZ,2022-05-01 11:38:33,52.4503,64.6311,49.91,66,99,10.09
356,Chisindia,RO,2022-05-01 11:38:34,46.2833,22.1,68.59,39,21,2.71
357,Yingcheng,CN,2022-05-01 11:38:35,30.95,113.55,63.25,60,100,2.86
358,Wilmington,US,2022-05-01 11:36:29,34.2257,-77.9447,69.94,90,0,0.0
359,Fortuna,US,2022-05-01 11:38:37,40.5982,-124.1573,47.98,96,100,6.91
360,Qaqortoq,GL,2022-05-01 11:38:38,60.7167,-46.0333,37.0,88,98,6.2
361,Kumbo,CM,2022-05-01 11:38:39,6.2,10.6667,74.16,61,91,4.12
362,Senekal,ZA,2022-05-01 11:38:40,-28.3197,27.6208,67.24,30,0,1.01
363,Yeppoon,AU,2022-05-01 11:38:41,-23.1333,150.7333,71.38,82,75,11.59
364,Douala,CM,2022-05-01 11:38:43,4.0483,9.7043,92.44,50,68,2.82
365,Lasa,IT,2022-05-01 11:38:44,46.6166,10.7002,57.69,85,99,1.59
366,Komsomolsk,UA,2022-05-01 11:38:45,49.0097,33.6455,59.76,47,86,6.22
367,Mehamn,NO,2022-05-01 11:38:46,71.0357,27.8492,28.8,58,99,4.25
368,Copiapo,CL,2022-05-01 11:38:48,-27.3667,-70.3333,51.49,60,93,2.15
369,Manokwari,ID,2022-05-01 11:36:01,-0.8667,134.0833,79.7,83,64,3.27
370,Pitimbu,BR,2022-05-01 11:39:50,-7.4706,-34.8086,79.39,72,49,14.85
371,Vanavara,RU,2022-05-01 11:39:51,60.34,102.2797,34.9,73,92,9.15
372,Carbondale,US,2022-05-01 11:39:51,37.7273,-89.2168,54.05,83,0,6.91
373,Asyut,EG,2022-05-01 11:39:52,27.181,31.1837,94.32,10,0,15.48
374,Manta,EC,2022-05-01 11:39:53,-0.95,-80.7333,74.98,83,40,6.91
375,Mandurah,AU,2022-05-01 11:39:54,-32.55,115.7,64.9,75,0,11.39
376,Kedgwick,CA,2022-05-01 11:39:55,47.6446,-67.3434,33.4,94,100,7.27
377,Anaco,VE,2022-05-01 11:39:56,9.4389,-64.4728,78.66,66,97,14.76
378,Yantal,RU,2022-05-01 11:39:57,56.8471,105.2542,43.45,93,100,10.78
379,Matagami,CA,2022-05-01 11:39:58,49.7502,-77.6328,28.51,64,0,5.75
380,Bath,GB,2022-05-01 11:39:59,51.3779,-2.3591,52.95,86,100,4.97
381,Esperance,AU,2022-05-01 11:40:00,-33.8667,121.9,60.64,69,0,4.27
382,Waipawa,NZ,2022-05-01 11:40:01,-41.4122,175.5153,55.36,81,56,11.27
383,Panaytayon,PH,2022-05-01 11:40:02,9.95,123.9833,84.15,82,100,8.7
384,Cedeno,CO,2022-05-01 11:40:03,7.0464,-72.1634,73.06,89,69,0.34
385,Leticia,CO,2022-05-01 11:40:04,-4.2153,-69.9406,75.25,100,75,6.91
386,San Vicente,AR,2022-05-01 11:40:05,-26.6167,-54.1333,64.87,99,68,3.78
387,Adra,ES,2022-05-01 11:40:06,36.7496,-3.0206,68.27,55,1,10.76
388,Mount Isa,AU,2022-05-01 11:40:08,-20.7333,139.5,78.57,53,16,12.66
389,Sola,VU,2022-05-01 11:40:09,-13.8833,167.55,81.79,73,100,5.32
390,Paita,PE,2022-05-01 11:40:11,-5.0892,-81.1144,65.82,89,94,8.19
391,Sosnovo-Ozerskoye,RU,2022-05-01 11:40:12,52.5249,111.5418,52.88,58,86,9.28
392,Puri,IN,2022-05-01 11:36:24,19.8,85.85,88.32,84,18,24.05
393,Jinxiang,CN,2022-05-01 11:40:14,27.4327,120.6062,58.32,84,100,3.87
394,Conceicao Do Araguaia,BR,2022-05-01 11:40:14,-8.2578,-49.2647,79.38,68,35,3.27
395,Yopal,CO,2022-05-01 11:40:15,5.3378,-72.3959,72.36,83,66,0.56
396,Novoulyanovsk,RU,2022-05-01 11:40:16,54.1496,48.3891,47.75,39,38,10.8
397,Amuntai,ID,2022-05-01 11:40:18,-2.4177,115.2494,79.56,85,89,2.53
398,Kislang,HU,2022-05-01 11:40:19,46.9574,18.3881,64.58,46,15,13.91
399,Tsabong,BW,2022-05-01 11:40:20,-26.0217,22.401,75.45,21,0,6.82
400,Faya,SA,2022-05-01 11:40:21,18.3851,42.4509,82.92,27,38,1.41
401,Grootfontein,NA,2022-05-01 11:40:22,-19.5667,18.1167,78.37,38,33,5.75
402,East London,ZA,2022-05-01 11:40:23,-33.0153,27.9116,74.34,35,0,16.11
403,Nelson Bay,AU,2022-05-01 11:37:09,-32.7167,152.15,62.1,94,88,5.01
404,Te Horo,NZ,2022-05-01 11:40:25,-40.8084,175.1233,58.62,91,78,8.43
405,Rio Gallegos,AR,2022-05-01 11:40:26,-51.6226,-69.2181,41.05,75,0,11.5
406,Mopti,ML,2022-05-01 11:40:27,14.6667,-4.0,97.0,20,86,3.4
407,Bubaque,GW,2022-05-01 11:40:28,11.2833,-15.8333,77.29,70,46,4.09
408,Santarem,BR,2022-05-01 11:40:29,-2.4431,-54.7083,77.13,100,40,0.0
409,Port Hardy,CA,2022-05-01 11:40:30,50.6996,-127.4199,46.4,93,40,2.3
410,Egvekinot,RU,2022-05-01 11:40:31,66.3167,-179.1667,3.67,79,33,11.63
411,Udachnyy,RU,2022-05-01 11:40:32,66.4167,112.4,25.45,45,93,5.55
412,Luena,AO,2022-05-01 11:40:33,-11.7833,19.9167,78.69,29,65,9.82
413,Prieska,ZA,2022-05-01 11:40:34,-29.6641,22.7474,72.88,23,1,8.12
414,Raudeberg,NO,2022-05-01 11:40:35,61.9875,5.1352,49.96,81,70,10.22
415,Ajdabiya,LY,2022-05-01 11:41:36,30.7554,20.2263,91.83,12,100,23.67
416,Geraldton,AU,2022-05-01 11:36:46,-28.7667,114.6,66.61,77,0,10.36
417,Ahipara,NZ,2022-05-01 11:41:38,-35.1667,173.1667,59.25,90,83,5.21
418,Kargil,IN,2022-05-01 11:41:39,34.5667,76.1,55.92,28,17,7.27
419,Inongo,CD,2022-05-01 11:41:40,-1.95,18.2667,78.44,72,86,4.72
420,Liverpool,GB,2022-05-01 11:41:41,53.4106,-2.9779,56.28,84,75,5.75
421,Amga,RU,2022-05-01 11:41:43,60.8953,131.9608,30.49,94,85,3.98
422,Ambon,ID,2022-05-01 11:41:44,-3.6954,128.1814,82.54,78,40,5.75
423,Powell River,CA,2022-05-01 11:41:45,49.8496,-124.5361,48.2,84,29,5.61
424,Santa Rosalia,MX,2022-05-01 11:41:46,27.3167,-112.2833,67.03,46,93,7.52
425,Batagay-Alyta,RU,2022-05-01 11:41:47,67.8006,130.4114,26.92,78,86,10.76
426,Magadan,RU,2022-05-01 11:41:48,59.5667,150.8,36.54,79,12,3.78
427,Yashalta,RU,2022-05-01 11:41:49,46.3395,42.2762,52.0,82,100,4.27
428,Decatur,US,2022-05-01 11:41:50,39.8403,-88.9548,52.88,76,0,10.36
429,Te Anau,NZ,2022-05-01 11:41:51,-45.4167,167.7167,49.39,93,48,3.31
430,Gambela,ET,2022-05-01 11:41:53,8.25,34.5833,98.87,30,71,4.56
431,Chernyshevskiy,RU,2022-05-01 11:41:54,63.0128,112.4714,21.65,76,97,9.86
432,Karratha,AU,2022-05-01 11:41:55,-20.7377,116.8463,83.91,52,49,1.72
433,Mahenge,TZ,2022-05-01 11:41:56,-8.6833,36.7167,73.89,67,45,4.79
434,Ferrol,ES,2022-05-01 11:41:57,43.4832,-8.2369,54.12,79,8,8.9
435,Villafranca De Los Barros,ES,2022-05-01 11:41:58,38.5614,-6.3381,75.29,27,49,13.56
436,Morro Bay,US,2022-05-01 11:41:59,35.3658,-120.8499,50.92,90,3,1.01
437,Maryborough,AU,2022-05-01 11:37:40,-25.5333,152.7,70.11,97,86,6.13
438,Marsaxlokk,MT,2022-05-01 11:42:01,35.8419,14.5431,65.08,72,0,17.27
439,Iquique,CL,2022-05-01 11:40:16,-20.2208,-70.1431,59.04,72,20,5.5
440,Ouadda,CF,2022-05-01 11:42:02,8.0777,22.4007,95.05,31,100,5.79
441,Praia Da Vitoria,PT,2022-05-01 11:42:03,38.7333,-27.0667,65.75,82,75,3.38
442,Angostura,MX,2022-05-01 11:42:04,25.3667,-108.1833,65.8,68,78,3.62
443,Tawang,IN,2022-05-01 11:42:05,27.5833,91.8667,50.83,94,100,1.88
444,Vallenar,CL,2022-05-01 11:42:06,-28.5708,-70.7581,61.27,59,100,2.82
445,Suntar,RU,2022-05-01 11:42:07,62.1444,117.6319,30.78,94,100,11.56
446,Teguise,ES,2022-05-01 11:42:08,29.0605,-13.564,73.62,50,20,12.66
447,Tateyama,JP,2022-05-01 11:42:09,34.9833,139.8667,60.1,89,100,23.06
448,Dauphin,CA,2022-05-01 11:42:10,51.1494,-100.0502,37.54,87,100,12.66
449,Dudinka,RU,2022-05-01 11:42:11,69.4058,86.1778,25.63,84,91,15.23
450,Peniche,PT,2022-05-01 11:42:12,39.3558,-9.3811,66.29,73,32,14.0
451,North Bend,US,2022-05-01 11:42:13,43.4065,-124.2243,45.86,99,100,4.61
452,Kyzyl-Suu,KG,2022-05-01 11:42:14,42.3414,78.0056,62.13,41,4,3.71
453,Carutapera,BR,2022-05-01 11:42:15,-1.195,-46.02,79.75,86,63,0.96
454,Nanortalik,GL,2022-05-01 11:42:17,60.1432,-45.2371,37.04,90,100,8.1
455,Tongren,CN,2022-05-01 11:42:18,27.7172,109.1853,59.99,82,99,2.26
456,Hefei,CN,2022-05-01 11:42:19,31.8639,117.2808,64.42,42,0,4.47
457,Agdas,AZ,2022-05-01 11:42:20,40.65,47.4761,76.66,37,72,10.04
458,Kulhudhuffushi,MV,2022-05-01 11:42:21,6.6221,73.07,85.86,74,68,16.55
459,Adrar,MR,2022-05-01 11:42:22,20.5022,-10.0711,93.83,8,1,11.5
460,San Andres,CO,2022-05-01 11:40:38,12.5847,-81.7006,80.62,89,75,10.36
461,Portland,US,2022-05-01 11:42:24,45.5234,-122.6762,50.61,92,100,3.44
462,Huarmey,PE,2022-05-01 11:43:25,-10.0681,-78.1522,65.08,90,69,4.23
463,Caravelas,BR,2022-05-01 11:43:25,-17.7125,-39.2481,82.02,58,12,5.28
464,Kundiawa,PG,2022-05-01 11:43:26,-6.0167,144.9667,61.95,97,92,2.19
465,Vyritsa,RU,2022-05-01 11:43:27,59.4078,30.3481,45.91,50,98,7.61
466,Atar,MR,2022-05-01 11:43:28,20.5169,-13.0499,97.32,7,22,1.07
467,Olkhovatka,RU,2022-05-01 11:43:29,50.2831,39.2872,53.83,41,83,7.25
468,Bonavista,CA,2022-05-01 11:43:30,48.6499,-53.1147,37.09,95,100,8.75
469,Chitungwiza,ZW,2022-05-01 11:43:31,-18.0127,31.0756,74.44,31,1,10.94
470,Morondava,MG,2022-05-01 11:43:33,-20.2833,44.2833,80.11,54,0,15.57
471,Kholmskaya,RU,2022-05-01 11:43:34,44.846,38.389,56.97,77,100,10.87
472,Coihaique,CL,2022-05-01 11:43:35,-45.5752,-72.0662,44.55,93,100,5.75
473,Hofn,IS,2022-05-01 11:43:36,64.2539,-15.2082,44.55,80,6,6.93
474,Verkh-Usugli,RU,2022-05-01 11:43:37,52.7,115.1667,53.67,50,92,3.8
475,Kolokani,ML,2022-05-01 11:43:37,13.5728,-8.0339,92.21,29,98,5.23
476,Port Shepstone,ZA,2022-05-01 11:43:38,-30.7414,30.455,70.32,61,3,8.61
477,Whitehorse,CA,2022-05-01 11:43:39,60.7161,-135.0538,36.37,54,75,15.01
478,Gwanda,ZW,2022-05-01 11:43:40,-20.9333,29.0,64.22,72,100,11.92
479,La Palma,US,2022-05-01 11:43:41,33.8464,-118.0467,60.85,91,75,3.44
480,Moranbah,AU,2022-05-01 11:43:44,-22.0016,148.0466,70.34,79,92,7.85
481,Oksfjord,NO,2022-05-01 11:43:45,70.2396,22.3479,39.0,88,99,1.7
482,Jam Sahib,PK,2022-05-01 11:43:46,26.2958,68.6292,120.22,7,60,22.08
483,Shimoda,JP,2022-05-01 11:41:48,34.6667,138.95,54.1,90,100,7.74
484,Makakilo City,US,2022-05-01 11:43:47,21.3469,-158.0858,73.72,76,40,14.97
485,Beloha,MG,2022-05-01 11:43:48,-25.1667,45.05,76.75,59,21,12.93
486,Silver City,US,2022-05-01 11:43:49,32.7701,-108.2803,55.69,19,0,9.22
487,Biloxi,US,2022-05-01 11:43:50,30.396,-88.8853,75.25,88,40,11.5
488,Mikkeli,FI,2022-05-01 11:43:51,61.6886,27.2723,48.31,49,0,5.75
489,Wagar,SD,2022-05-01 11:43:52,16.1525,36.2032,108.32,9,28,17.36
490,Yar-Sale,RU,2022-05-01 11:43:53,66.8333,70.8333,28.54,82,54,10.31
491,Yuancheng,CN,2022-05-01 11:43:54,36.652,107.7896,58.26,14,0,5.5
492,Matay,EG,2022-05-01 11:43:55,28.419,30.7792,91.9,12,0,12.35
493,Sitka,US,2022-05-01 11:43:56,57.0531,-135.33,51.69,54,100,18.41
494,Tiznit,MA,2022-05-01 11:43:57,29.5833,-9.5,81.23,19,0,10.36
495,Ugoofaaru,MV,2022-05-01 11:43:58,5.6667,73.0,86.27,73,92,17.38
496,Isangel,VU,2022-05-01 11:43:59,-19.55,169.2667,79.23,90,100,7.31
497,Dadu,PK,2022-05-01 11:44:00,26.7329,67.7763,114.12,6,98,18.14
498,Buta,CD,2022-05-01 11:44:01,2.7858,24.73,93.79,39,88,2.26
499,Lexington-Fayette,US,2022-05-01 11:44:02,38.0498,-84.4585,61.86,95,100,1.01
500,Bandarbeyla,SO,2022-05-01 11:44:04,9.4942,50.8122,88.39,63,92,14.0
501,Noumea,NC,2022-05-01 11:43:11,-22.2763,166.4572,78.01,99,68,12.12
502,Roald,NO,2022-05-01 11:44:05,62.5833,6.1333,52.72,71,20,9.22
503,Port Blair,IN,2022-05-01 11:44:06,11.6667,92.75,86.04,70,40,3.44
504,Camocim,BR,2022-05-01 11:44:07,-2.9022,-40.8411,81.01,77,71,8.16
505,Xai-Xai,MZ,2022-05-01 11:44:08,-25.0519,33.6442,76.37,61,13,14.38
506,Biasca,CH,2022-05-01 11:44:09,46.3597,8.9697,68.36,54,43,2.91
507,Clyde River,CA,2022-05-01 11:44:10,70.4692,-68.5914,8.83,92,100,8.05
508,Bend,US,2022-05-01 11:44:11,44.0582,-121.3153,36.32,80,100,1.01
509,Moyale,KE,2022-05-01 11:44:12,3.5167,39.0584,74.3,73,81,9.24
510,Buraydah,SA,2022-05-01 11:45:11,26.326,43.975,97.25,7,0,17.94
511,Aquin,HT,2022-05-01 11:45:14,18.2833,-73.4,77.16,81,85,2.93
512,Oranjemund,NA,2022-05-01 11:45:15,-28.55,16.4333,80.26,23,0,12.06
513,Voznesenskoye,RU,2022-05-01 11:45:16,54.89,42.7569,50.4,34,28,6.42
514,Sakaiminato,JP,2022-05-01 11:45:17,35.55,133.2333,53.58,58,20,3.44
515,Kamogata,JP,2022-05-01 11:45:18,34.5333,133.5833,60.39,60,88,4.68
516,San Cristobal,VE,2022-05-01 11:45:19,7.7669,-72.225,73.58,91,94,5.1
517,Vaitape,PF,2022-05-01 11:45:20,-16.5167,-151.75,80.74,73,45,11.27
518,Cherepovets,RU,2022-05-01 11:45:16,59.1333,37.9,46.22,53,75,6.71
519,Doha,QA,2022-05-01 11:43:46,25.2867,51.5333,98.91,42,0,11.5
520,Salem,IN,2022-05-01 11:42:00,11.65,78.1667,100.58,24,38,5.53
521,Canico,PT,2022-05-01 11:45:23,32.6333,-16.85,77.72,57,20,14.97
522,Timaru,NZ,2022-05-01 11:45:24,-44.4,171.25,56.07,91,99,5.35
523,Saint-Georges,GD,2022-05-01 11:45:25,12.0564,-61.7485,80.28,78,20,17.27
524,Lewistown,US,2022-05-01 11:45:27,40.5992,-77.5714,52.16,68,88,2.59
525,Lazaro Cardenas,MX,2022-05-01 11:45:28,17.9583,-102.2,70.05,77,67,4.56
526,Bulembu,SZ,2022-05-01 11:45:29,-25.9667,31.1333,68.31,46,1,4.79
527,Kimbe,PG,2022-05-01 11:45:30,-5.5502,150.1429,76.68,91,47,1.79
528,Pacifica,US,2022-05-01 11:45:32,37.6138,-122.4869,51.75,86,40,19.57
529,Monte Alegre,BR,2022-05-01 11:45:33,-2.0078,-54.0692,77.94,86,73,3.8
530,Chiredzi,ZW,2022-05-01 11:45:34,-21.05,31.6667,70.84,63,100,8.05
531,Gornopravdinsk,RU,2022-05-01 11:45:35,60.05,69.9,46.81,37,29,5.95
532,Skibbereen,IE,2022-05-01 11:45:36,51.55,-9.2667,56.1,78,100,12.19
533,Sarkand,KZ,2022-05-01 11:45:37,45.41,79.9186,78.93,28,42,5.28
534,Fort-Shevchenko,KZ,2022-05-01 11:45:38,44.5086,50.263,61.09,68,4,18.88
535,Ola,RU,2022-05-01 11:45:40,59.5833,151.2833,37.15,79,9,3.83
536,Brokopondo,SR,2022-05-01 11:45:41,4.75,-55.1667,78.48,77,61,6.26
537,Vila Do Maio,CV,2022-05-01 11:45:42,15.1333,-23.2167,79.59,74,0,14.92
538,Maarianhamina,AX,2022-05-01 11:45:43,60.0973,19.9348,51.66,37,0,10.36
539,Laguna,US,2022-05-01 11:45:44,38.421,-121.4238,50.45,84,0,3.44
540,Baruun-Urt,MN,2022-05-01 11:45:45,46.6806,113.2792,54.16,51,98,4.38
541,Bemidji,US,2022-05-01 11:45:46,47.4736,-94.8803,40.05,100,100,10.36
542,Ambilobe,MG,2022-05-01 11:45:47,-13.2,49.05,85.64,66,10,5.01
543,Itoman,JP,2022-05-01 11:45:49,26.1247,127.6694,70.18,76,75,13.8
544,Vestmannaeyjar,IS,2022-05-01 11:45:50,63.4427,-20.2734,47.39,76,0,18.41
545,Edd,ER,2022-05-01 11:45:51,13.9297,41.6925,92.1,55,97,12.28
546,Amreli,IN,2022-05-01 11:45:52,21.6167,71.2333,106.21,15,0,18.16
547,Ilo,PE,2022-05-01 11:45:53,-17.6394,-71.3375,64.83,80,53,5.28
548,Umm Lajj,SA,2022-05-01 11:45:08,25.0213,37.2685,82.58,66,0,15.46
549,Susehri,TR,2022-05-01 11:45:55,40.1644,38.0867,52.88,80,100,5.1
550,Lensk,RU,2022-05-01 11:45:56,60.7253,114.9278,34.11,99,100,7.54
551,Haimen,CN,2022-05-01 11:45:57,23.1935,116.6142,66.09,93,100,13.42
552,Salinopolis,BR,2022-05-01 11:45:58,-0.6136,-47.3561,79.21,83,79,3.29
553,Omboue,GA,2022-05-01 11:45:59,-1.5746,9.2618,85.82,68,58,8.97
554,Tigil,RU,2022-05-01 11:46:00,57.8,158.6667,28.53,95,88,1.25
555,Benito Juarez,MX,2022-05-01 11:46:01,19.385,-99.165,64.0,44,100,8.01
556,Turbat,PK,2022-05-01 11:47:02,26.0023,63.044,103.17,10,83,25.88
557,Grenville,GD,2022-05-01 11:47:03,12.1167,-61.6167,80.65,68,82,18.07
